district	police	center	dose1	dose2	lat	lng	formatted_address	district_si	police_si	center_si	formatted_address_si	district_ta	police_ta	center_ta	formatted_address_ta
Colombo	Cinnamon Gardens	Viharamahadevi Park	True	True	6.9134	79.8617	Viharamahadevi Park, Colombo 07, Sri Lanka	කොළඹ	කුරුඳු උද්‍යාන	විහාරමහාදේවි උද්‍යානය	විහාරමහාදේවි උද්‍යානය, කොළඹ 07, ශ්‍රී ලංකාව	கொழும்பு	இலவங்கப்பட்டை தோட்டங்கள்	விஹாரமஹாதேவி பூங்கா	விஹாரமஹாதேவி பூங்கா, கொழும்பு 07, இலங்கை
Colombo	Boralesgamuwa	Kotelawala Defence Hospital	False	True	6.8252	79.9072	RWG4+3VF, Boralesgamuwa, Sri Lanka	කොළඹ	බොරලැස්ගමුව	කොතලාවල ආරක්‍ෂක රෝහල	RWG4+3VF, බොරලැස්ගමුව, ශ්‍රී ලංකාව	கொழும்பு	பொரலஸ்கமுவா	கொத்தலாவல பாதுகாப்பு மருத்துவமனை	RWG4+3VF, பொரலஸ்கமுவா, இலங்கை
Colombo	Narahenpita	Army Hospital Narahenpita	False	False	6.8976	79.8815	Army Hospital, Colombo 00500, Sri Lanka	කොළඹ	නාරාහේන්පිට	නාරාහේන්පිට හමුදා රෝහල	යුධ හමුදා රෝහල, කොළඹ 00500, ශ්‍රී ලංකාව	கொழும்பு	நரஹேன்பிட்ட	இராணுவ மருத்துவமனை நாரஹேன்பிட்ட	இராணுவ மருத்துவமனை, கொழும்பு 00500, இலங்கை
Colombo	Grandpass	Sugathadasa Outdoor Stadium	False	True	6.9481	79.8688	Prince of Wales Ave, Colombo 01400, Sri Lanka	කොළඹ	ග්‍රෑන්ඩ්පාස්	සුගතදාස එළිමහන් ක්‍රීඩාංගනය	වේල්ස් කුමර මාවත, කොළඹ 01400, ශ්‍රී ලංකාව	கொழும்பு	கிராண்ட்பாஸ்	சுகததாச வெளிப்புற அரங்கம்	பிரின்ஸ் ஆஃப் வேல்ஸ் அவே, கொழும்பு 01400, இலங்கை
Colombo	Colombo	Sri Wickramapura	False	True	6.9419	79.8646	WVR7+QVC, Colombo, Sri Lanka	කොළඹ	කොළඹ	ශ්‍රී වික්‍රමපුර	WVR7+QVC, කොළඹ, ශ්‍රී ලංකාව	கொழும்பு	கொழும்பு	ஸ்ரீ விக்கிரமபுரா	WVR7+QVC, கொழும்பு, இலங்கை
Colombo	Boralesgamuwa	MOH Office - Werahera	False	False	6.8331	79.9056	RWM4+66P, Boralesgamuwa, Sri Lanka	කොළඹ	බොරලැස්ගමුව	MOH කාර්යාලය - වේරහැර	RWM4+66P, බොරලැස්ගමුව, ශ්‍රී ලංකාව	கொழும்பு	பொரலஸ்கமுவா	MOH அலுவலகம் - வெரஹெரா	RWM4+66P, பொரலஸ்கமுவா, இலங்கை
Colombo	Maradana	Colombo National Hospital	False	False	6.9187	79.869	Colombo 00700, Sri Lanka	කොළඹ	මරදාන	කොළඹ ජාතික රෝහල	කොළඹ 00700, ශ්‍රී ලංකාව	கொழும்பு	மரதானா	கொழும்பு தேசிய மருத்துவமனை	கொழும்பு 00700, இலங்கை
Colombo	Maradana	Mohideen Masjid Rd, Mohideen Jumma Masjid	False	False	6.9325	79.8643	Mohideen Masjid Rd, Colombo 01000, Sri Lanka	කොළඹ	මරදාන	මොහිදීන් පල්ලිය පාර, මොහිදීන් ජුම්මා පල්ලිය	මොහිදීන් පල්ලිය පාර, කොළඹ 01000, ශ්‍රී ලංකාව	கொழும்பு	மரதானா	மொஹிதீன் மசூதி சாலை, மொஹிதீன் ஜும்மா மசூதி	மொஹிதீன் மசூதி சாலை, கொழும்பு 01000, இலங்கை
Colombo	Borella	St. Luke's Church – Borella	False	False	6.918	79.8745	1091 Gnanartha Pradeepa Mawatha, Colombo 00800, Sri Lanka	කොළඹ	බොරැල්ල	ශාන්ත ලූක් දේවස්ථානය - බොරැල්ල	1091 ඥානාර්ථ ප්‍රදීපා මාවත, කොළඹ 00800, ශ්‍රී ලංකාව	கொழும்பு	பொரெல்லா	செயின்ட் லூக்கா தேவாலயம் - பொரெல்லா	1091 ஞானார்த்த பிரதீப மாவத்தை, கொழும்பு 00800, இலங்கை
Colombo	Wellawatta	MOH Office – Wellawatta	False	False	6.8613	79.8659	VV68+G9P, Dehiwala-Mount Lavinia, Sri Lanka	කොළඹ	වැල්ලවත්ත	MOH කාර්යාලය - වැල්ලවත්ත	VV68+G9P, දෙහිවල-ගල්කිස්ස, ශ්‍රී ලංකාව	கொழும்பு	வெள்ளவத்தை	MOH அலுவலகம் - வெள்ளவத்தை	VV68+G9P, தெஹிவளை-கல்கிசை, இலங்கை
Colombo	Kirulapana	Sithumina Hall	False	False	6.8767	79.8792	00600, Mugalan Rd, Colombo 00600, Sri Lanka	කොළඹ	කිරුලපන	සිතුමිණ ශාලාව	00600, මුගලන් පාර, කොළඹ 00600, ශ්‍රී ලංකාව	கொழும்பு	கிருலபனா	சித்துமினா மண்டபம்	00600, முகலான் சாலை, கொழும்பு 00600, இலங்கை
Colombo	Dehiwala	S. De. S. Jayasinghe Hall	False	False	6.8615	79.865	B11, Dehiwala-Mount Lavinia, Sri Lanka	කොළඹ	දෙහිවල	එස්. ද. එස්. ජයසිංහ ශාලාව	බී 11, දෙහිවල-ගල්කිස්ස, ශ්‍රී ලංකාව	கொழும்பு	தெஹிவளை	எஸ். டி. எஸ். ஜெயசிங்க மண்டபம்	பி 11, தெஹிவளை-கல்கிசை, இலங்கை
Colombo	Mt Lavinia	Sri Jananandarama Viharaya	False	False	6.9167	79.8566	61 Sri Jinarathana Rd, Colombo 00200, Sri Lanka	කොළඹ	ගල්කිස්ස	ශ්‍රී ජනනන්දාරාම විහාරය	61 ශ්‍රී ජිනරතන පාර, කොළඹ 00200, ශ්‍රී ලංකාව	கொழும்பு	கல்கிசை	ஸ்ரீ ஜனானந்தராம விஹாராயா	61 ஸ்ரீ ஜினரதன சாலை, கொழும்பு 00200, இலங்கை
Colombo	Fore shore	MOH Office - Jinthupitiya	False	False	6.9433	79.8592	No.27 Vivekananda Hill, Colombo 01300, Sri Lanka	කොළඹ	ඉදිරිපස වෙරළ	MOH කාර්යාලය - ජින්තුපිටිය	අංක 27 විවේකානන්ද කන්ද, කොළඹ 01300, ශ්‍රී ලංකාව	கொழும்பு	முன் கரை	MOH அலுவலகம் - ஜிந்துபிடியா	எண் .27 விவேகானந்த மலை, கொழும்பு 01300, இலங்கை
Colombo	Fort	Navy Headquarters	False	False	6.937	79.8421	WRPR+QRQ, Colombo, Sri Lanka	කොළඹ	Fort	නාවික හමුදා මූලස්ථානය	WRPR+QRQ, කොළඹ, ශ්‍රී ලංකාව	கொழும்பு	Fort	கடற்படை தலைமையகம்	WRPR+QRQ, கொழும்பு, இலங்கை
Colombo	Wellampitiya	MOH Office – Kolonnawa	False	False	6.9462	79.8697	Colombo 01400, Sri Lanka	කොළඹ	වැල්ලම්පිටිය	MOH කාර්යාලය - කොළොන්නාව	කොළඹ 01400, ශ්‍රී ලංකාව	கொழும்பு	வெல்லம்பிட்டிய	MOH அலுவலகம் - கொலன்னாவா	கொழும்பு 01400, இலங்கை
Gampaha	Katunayaka	BOI - Katunayaka	False	True	7.1709	79.8899	Katunayake Export Processing Zone, Katunayake, Sri Lanka	ගම්පහ	කටුනායක	ආයෝඡනය - කටුනායක	කටුනායක අපනයන සැකසුම් කලාපය, කටුනායක, ශ්‍රී ලංකාව	கம்பஹா	கட்டுநாயக்க	BOI - கட்டுநாயக்க	கட்டுநாயக்க ஏற்றுமதி செயலாக்க மண்டலம், கட்டுநாயக்க, இலங்கை
Gampaha	Katunayaka	18th Mile Post Viharaya	False	False	7.1566	79.8712	5V4C+JFH, Katunayake, Sri Lanka	ගම්පහ	කටුනායක	18 කණුව විහාරය	5V4C+JFH, කටුනායක, ශ්‍රී ලංකාව	கம்பஹா	கட்டுநாயக்க	18 வது மைல் போஸ்ட் விஹாராயா	5V4C+JFH, கட்டுநாயக்க, இலங்கை
Gampaha	Katunayaka	MOH Office - Seeduwa	False	False	7.1723	79.9568	Katunayake-Veyangoda Rd, Minuwangoda, Sri Lanka	ගම්පහ	කටුනායක	MOH කාර්යාලය - සීදුව	කටුනායක-වේයන්ගොඩ පාර, මිනුවන්ගොඩ, ශ්‍රී ලංකාව	கம்பஹா	கட்டுநாயக்க	MOH அலுவலகம் - சீதுவா	கட்டுநாயக்க-வெயங்கொட வீதி, மினுவாங்கொட, இலங்கை
Gampaha	Gampaha	Mabima Vidyadeepa Pirivena	False	False	7.1044	79.9397	4W3Q+QVH, Gampaha, Sri Lanka	ගම්පහ	ගම්පහ	මාබිම විද්‍යාදීප පිරිවෙන	4W3Q+QVH, ගම්පහ, ශ්‍රී ලංකාව	கம்பஹா	கம்பஹா	மபிமா வித்யதீப பிரிவேனா	4W3Q+QVH, கம்பஹா, இலங்கை
Gampaha	Pugoda	MOH Office – Dompe	False	False	7.1723	79.9568	Katunayake-Veyangoda Rd, Minuwangoda, Sri Lanka	ගම්පහ	පූගොඩ	MOH කාර්යාලය - දොම්පේ	කටුනායක-වේයන්ගොඩ පාර, මිනුවන්ගොඩ, ශ්‍රී ලංකාව	கம்பஹா	புகோடா	MOH அலுவலகம் - Dompe	கட்டுநாயக்க-வெயங்கொட வீதி, மினுவாங்கொட, இலங்கை
Gampaha	Dompe	Malawana Viharaya	False	False	7.0797	80.0523	Yakkala - Radawana Rd, Sri Lanka	ගම්පහ	දොම්පේ	මාලවන විහාරය	යක්කල - රදාවාන පාර, ශ්‍රී ලංකාව	கம்பஹா	டோம்பே	மாளவன விஹாராயா	யக்கலா - ராதவானா சாலை, இலங்கை
Gampaha	Kirindiwela	Kannimahara Viharaya	False	False	7.11	79.9899	4X6Q+2X2, Gampaha, Sri Lanka	ගම්පහ	කිරිඳිවැල	කන්නිමහර විහාරය	4X6Q+2X2, ගම්පහ, ශ්‍රී ලංකාව	கம்பஹா	கிரிந்திவெல	கன்னிமஹாரா விஹாராயா	4X6Q+2X2, கம்பஹா, இலங்கை
Gampaha	Minuwangoda	Walpitamulla Viharaya	False	False	7.11	79.9899	4X6Q+2X2, Gampaha, Sri Lanka	ගම්පහ	මිනුවන්ගොඩ	වල්පිටමුල්ල විහාරය	4X6Q+2X2, ගම්පහ, ශ්‍රී ලංකාව	கம்பஹா	மினுவாங்கொட	வால்பிதமுல்லா விஹாராயா	4X6Q+2X2, கம்பஹா, இலங்கை
Gampaha	Minuwangoda	Kotugoda Viharaya	False	False	7.11	79.9899	4X6Q+2X2, Gampaha, Sri Lanka	ගම්පහ	මිනුවන්ගොඩ	කොටුගොඩ විහාරය	4X6Q+2X2, ගම්පහ, ශ්‍රී ලංකාව	கம்பஹா	மினுவாங்கொட	கொடுகொட விஹாராயா	4X6Q+2X2, கம்பஹா, இலங்கை
Gampaha	Minuwangoda	Asgiriya Viharaya	False	False	7.11	79.9899	4X6Q+2X2, Gampaha, Sri Lanka	ගම්පහ	මිනුවන්ගොඩ	අස්ගිරි විහාරය	4X6Q+2X2, ගම්පහ, ශ්‍රී ලංකාව	கம்பஹா	மினுவாங்கொட	அஸ்கிரிய விஹாராயா	4X6Q+2X2, கம்பஹா, இலங்கை
Gampaha	Ganemulla	Horagolla Viharaya	False	False	7.1403	80.0846	Horagolla National Park, Nittambuwa, Sri Lanka	ගම්පහ	ගනේමුල්ල	හොරගොල්ල විහාරය	හොරගොල්ල ජාතික වනෝද්‍යානය, නිට්ටඹුව, ශ්‍රී ලංකාව	கம்பஹா	கணேமுல்லா	ஹோரகொல்லா விஹாராயா	ஹொரகொல்லா தேசிய பூங்கா, நிட்டம்புவா, இலங்கை
Gampaha	Yakkala	Ihala Imbulgoda Viharamahadevi Vidyalaya	False	False	7.0713	80.0088	Gampaha, Sri Lanka	ගම්පහ	යක්කල	ඉහළ ඉඹුල්ගොඩ විහාරමහාදේවි විද්‍යාලය	ගම්පහ, ශ්‍රී ලංකාව	கம்பஹா	யக்கல	இஹலா இம்புல்கொட விஹாரமஹாதேவி வித்யாலயா	கம்பஹா, இலங்கை
Gampaha	Nittambuwa	Nambuluwa Vidyalaya – Pasyala	False	False	7.1675	80.1233	A1, Pasyala, Sri Lanka	ගම්පහ	නිට්ටඹුව	නම්බුළුව විද් යාලය - පස්යාල	ඒ 1, පස්යාල, ශ්‍රී ලංකාව	கம்பஹா	நிட்டம்புவா	நம்புலுவ வித்யாலயா - பஸ்யால	ஏ 1, பஸ்யாலா, இலங்கை
Gampaha	Nittambuwa	Dhathukanda Rajamaha Viharaya	False	False	6.3601	80.2402	B158, Hattaka, Sri Lanka	ගම්පහ	නිට්ටඹුව	ධාතුකන්ද රජමහා විහාරය	බී 158, හත්තක, ශ්‍රී ලංකාව	கம்பஹா	நிட்டம்புவா	தாதுகந்த ராஜமஹா விஹாராயா	பி 158, ஹட்டகா, இலங்கை
Gampaha	Nittambuwa	Undugoda Viharaya	False	False	7.1401	80.354	49R3+2HX, Undugoda, Sri Lanka	ගම්පහ	නිට්ටඹුව	උඳුගොඩ විහාරය	49 ආර් 3+2 එච්එක්ස්, උඳුගොඩ, ශ්‍රී ලංකාව	கம்பஹா	நிட்டம்புவா	உண்டுகொட விஹாராயா	49R3+2HX, உண்டுகொட, இலங்கை
Gampaha	Weeragula	Baron Jayathilaka Vidyalaya	False	False	7.0854	80.0752	Yakkala - Radawana Rd, Sri Lanka	ගම්පහ	වීරගුල	බාරොන් ජයතිලක විද්‍යාලය	යක්කල - රදාවාන පාර, ශ්‍රී ලංකාව	கம்பஹா	வீரகுலா	பரோன் ஜெயதிலக வித்யாலயா	யக்கலா - ராதவானா சாலை, இலங்கை
Gampaha	Weeragula	Dematalanda Community Hall	False	False	6.923	79.8692	WVF9+6M3, Colombo 01000, Sri Lanka	ගම්පහ	වීරගුල	දෙමටලන්ද ප්‍රජා ශාලාව	ඩබ්ලිව්වීඑෆ් 9+6 එම් 3, කොළඹ 01000, ශ්‍රී ලංකාව	கம்பஹா	வீரகுலா	தெமதலாந்தா சமுதாயக் கூடம்	WVF9+6M3, கொழும்பு 01000, இலங்கை
Gampaha	Kotadeniyawa	Godigamuwa Viharaya	False	False	7.1138	80.1355	Nittambuwa - Ruwanwella Rd, Sri Lanka	ගම්පහ	කොටදෙනියාව	ගොඩිගමුව විහාරය	නිට්ටඹුව - රුවන්වැල්ල පාර, ශ්‍රී ලංකාව	கம்பஹா	கோடதெனியாவா	கொடிகமுவா விஹாராயா	நிட்டம்புவ - ருவன்வெல்ல வீதி, இலங்கை
Gampaha	Kotadeniyawa	Gamage Watta Viharaya	False	False	7.0797	80.0523	Yakkala - Radawana Rd, Sri Lanka	ගම්පහ	කොටදෙනියාව	ගමගේ වත්ත විහාරය	යක්කල - රදාවාන පාර, ශ්‍රී ලංකාව	கம்பஹா	கோடதெனியாவா	Gamage Watta Viharaya	யக்கலா - ராதவானா சாலை, இலங்கை
Gampaha	Divulapitiya	Nawana Maha Vidyalaya	False	False	7.272	80.0954	Nawana,Mirigama., Kotadeniyawa - Mirigama Rd, Sri Lanka	ගම්පහ	දිවුලපිටිය	නවාන මහා විද්‍යාලය	නවාන, මීරිගම., කොටදෙනියාව - මීරිගම පාර, ශ්‍රී ලංකාව	கம்பஹா	திவுலபிட்டிய	நவனா மகா வித்யாலயா	நவனா, மீரிகம., கோடதெனியாவா - மீரிகம வீதி, இலங்கை
Gampaha	Divulapitiya	Pallipitiya Jayathilakaramaya	False	False	7.0713	80.0088	Gampaha, Sri Lanka	ගම්පහ	දිවුලපිටිය	පල්ලිපිටිය ජයතිලකාරාමය	ගම්පහ, ශ්‍රී ලංකාව	கம்பஹா	திவுலபிட்டிய	பள்ளிபிட்டிய ஜெயதிலகாராமையா	கம்பஹா, இலங்கை
Gampaha	Divulapitiya	Henpitagedara Primary School	False	False	7.2132	79.9851	6X7P+728, Gampaha, Sri Lanka	ගම්පහ	දිවුලපිටිය	හෙන්පිටගෙදර ප්‍රාථමික විද්‍යාලය	6X7P+728, ගම්පහ, ශ්‍රී ලංකාව	கம்பஹா	திவுலபிட்டிய	ஹென்பிடகெதரா ஆரம்பப் பள்ளி	6X7P+728, கம்பஹா, இலங்கை
Gampaha	Divulapitiya	MOH Office – Divulapitiya	False	False	7.2155	80.0136	6287+5CX, Divulapitiya, Sri Lanka	ගම්පහ	දිවුලපිටිය	එම්ඕඑච් කාර්යාලය - දිවුලපිටිය	6287+5CX, දිවුලපිටිය, ශ්‍රී ලංකාව	கம்பஹா	திவுலபிட்டிய	MOH அலுவலகம் - திவுலபிட்டிய	6287+5CX, திவுலபிட்டிய, இலங்கை
Gampaha	Kadawata	MOH Office – Mahara	False	False	7.0208	79.9735	Mahara, Eldeniya, Sri Lanka	ගම්පහ	කඩවත	MOH කාර්යාලය - මහර	මහර, ඇල්දෙනිය, ශ්‍රී ලංකාව	கம்பஹா	கடவாடா	MOH அலுவலகம் - மஹாரா	மஹாரா, எல்டெனியா, இலங்கை
Gampaha	Meegahawatta	Naranwala Viharaya	False	False	7.0183	80.0255	Nadungahahena, New Kandy Rd, Imbula, Sri Lanka	ගම්පහ	මීගහවත්ත	නාරංවල විහාරය	නදුන්ගහහේන, නව නුවර පාර, ඉඹුල, ශ්‍රී ලංකාව	கம்பஹா	மீகஹவத்த	நரன்வாலா விஹாராயா	நடுங்கஹஹேனா, புதிய கண்டி சாலை, இம்புலா, இலங்கை
Gampaha	Peliyagoda	Gagabada Community Hall	False	False	6.6898	79.999	MXQX+WJ2, Bandaragama, Sri Lanka	ගම්පහ	පෑලියගොඩ	ගගබඩ ප්‍රජා ශාලාව	MXQX+WJ2, බණ්ඩාරගම, ශ්‍රී ලංකාව	கம்பஹா	பேலியகொட	காகபடா சமுதாயக் கூடம்	MXQX+WJ2, பண்டாரகம, இலங்கை
Gampaha	Katana	MOH Office – Katana	False	False	7.2244	79.8827	Katana, Negombo - Mirigama Rd, Negombo, Sri Lanka	ගම්පහ	කටාන	MOH කාර්යාලය - කටාන	කටාන, මීගමුව - මීරිගම පාර, මීගමුව, ශ්‍රී ලංකාව	கம்பஹா	கட்டானா	MOH அலுவலகம் - கட்டானா	கட்டானா, நீர்கொழும்பு - மீரிகம வீதி, நீர்கொழும்பு, இலங்கை
Gampaha	Negombo	Town Hall – Negombo	False	False	7.2067	79.8519	Negombo, Sri Lanka	ගම්පහ	නෙගොමොබෝ	නගර ශාලාව - නැගමෝබෝ	මීගමුව, ශ්‍රී ලංකාව	கம்பஹா	நெகோமோபோ	டவுன் ஹால் - நெகோமோபோ	நீர்கொழும்பு, இலங்கை
Gampaha	Pamunugama	Pamunugama Hospital	False	False	7.0914	80.0007	A33, Gampaha, Sri Lanka	ගම්පහ	පමුණුගම	පමුණුගම රෝහල	ඒ 33, ගම්පහ, ශ්‍රී ලංකාව	கம்பஹா	பமுனுகம	பமுனுகம மருத்துவமனை	A33, கம்பஹா, இலங்கை
Gampaha	Kelaniya	Kandahena Clinic	False	False	6.9888	79.8912	389 Negombo-Colombo Main Rd, Wattala 11300, Sri Lanka	ගම්පහ	කැලණිය	කන්දහේන සායනය	389 මීගමුව-කොළඹ ප්‍රධාන පාර, වත්තල 11300, ශ්‍රී ලංකාව	கம்பஹா	களனி	கந்தஹேனா கிளினிக்	389 நீர்கொழும்பு-கொழும்பு பிரதான வீதி, வத்தளை 11300, இலங்கை
Gampaha	Kelaniya	Himbutuwellegama	False	False	6.9503	79.9175	340 Biyagama Rd, Peliyagoda, Sri Lanka	ගම්පහ	කැලණිය	හිඹුටුවැල්ලේගම	340 බියගම පාර, පෑලියගොඩ, ශ්‍රී ලංකාව	கம்பஹா	களனி	ஹிம்புட்டுவெல்லேகம	340 பியகம வீதி, பேலியகொட, இலங்கை
Gampaha	Ja Ela	MOH Office - Ja Ela	False	False	7.0752	79.8939	60 Mount Kalvary Rd, Ja-Ela, Sri Lanka	ගම්පහ	ජා ඇල	MOH කාර්යාලය - ජා ඇල	60 කල්වාරි පාර, ජා-ඇල, ශ්‍රී ලංකාව	கம்பஹா	ஜா எல	MOH அலுவலகம் - ஜா எல	60 மவுண்ட் கல்வாரி சாலை, ஜா-எல, இலங்கை
Gampaha	Wattala	MOH Office – Wattala	False	False	6.9958	79.8858	301 Hendala Rd, Wattala, Sri Lanka	ගම්පහ	වත්තල	MOH කාර්යාලය - වත්තල	301 හැඳල පාර, වත්තල, ශ්‍රී ලංකාව	கம்பஹா	வத்தளை	MOH அலுவலகம் - வத்தளை	301 ஹெந்தலா சாலை, வத்தளை, இலங்கை
Gampaha	Ragama	MOH Office – Ragama	False	False	7.0274	79.9202	2WGC+X35, Ragama, Sri Lanka	ගම්පහ	රාගම	MOH කාර්යාලය - රාගම	2WGC+X35, රාගම, ශ්‍රී ලංකාව	கம்பஹா	ராகம	MOH அலுவலகம் - ராகம	2WGC+X35, ராகம, இலங்கை
Gampaha	Kalutara South	Mobile Medical Team - Kalutara	True	True	6.5849	79.961	HXM6+WCV, Kalutara, Sri Lanka	ගම්පහ	කළුතර දකුණ	ජංගම වෛද්‍ය කණ්ඩායම - කළුතර	HXM6+WCV, කළුතර, ශ්‍රී ලංකාව	கம்பஹா	களுத்துறை தெற்கு	நடமாடும் மருத்துவ குழு - களுத்துறை	HXM6+WCV, களுத்துறை, இலங்கை
Kalutara	Kalutara South	MOH Office – Kalutara	False	False	6.713	80.0679	P379+657, Horana, Sri Lanka	කළුතර	කළුතර දකුණ	MOH කාර්යාලය - කළුතර	පී 379+657, හොරණ, ශ්‍රී ලංකාව	களுத்துறை	களுத்துறை தெற்கு	MOH அலுவலகம் - களுத்துறை	பி 379+657, ஹொரானா, இலங்கை
Kalutara	Kalutara South	General Hospital Nagoda – Kalutara	False	False	6.5632	79.9853	Kalutara-Matugama Rd, Sri Lanka	කළුතර	කළුතර දකුණ	මහ රෝහල නාගොඩ - කළුතර	කළුතර මතුගම පාර, ශ්‍රී ලංකාව	களுத்துறை	களுத்துறை தெற்கு	பொது மருத்துவமனை நாகொட - களுத்துறை	களுத்துறை-மத்துகம வீதி, இலங்கை
Kalutara	Beruwala	Zahira College - Darga Town, Beruwala	False	True	6.4428	80.0047	Zahira College Road, Dharga Town 12090, Sri Lanka	කළුතර	බේරුවල	සහිරා විද්‍යාලය - දර්ගා නගරය, බේරුවල	සහිරා විද්‍යාල පාර, දර්ගා නගරය 12090, ශ්‍රී ලංකාව	களுத்துறை	பேருவளை	ஸாஹிரா கல்லூரி - தர்கா டவுன், பேருவளை	ஸாஹிரா கல்லூரி சாலை, தர்கா டவுன் 12090, இலங்கை
Kalutara	Beruwala	MOH Office – Beruwala	False	False	6.4376	79.9994	CXQX+2PH, Aluthgama, Sri Lanka	කළුතර	බේරුවල	MOH කාර්යාලය - බේරුවල	CXQX+2PH, අළුත්ගම, ශ්‍රී ලංකාව	களுத்துறை	பேருவளை	MOH அலுவலகம் - பேருவளை	CXQX+2PH, அளுத்கம, இலங்கை
Kalutara	Dodangoda	MOH Office – Dodangoda	False	False	6.5403	80.0366	G2RP+4JH, Sri Lanka	කළුතර	දොඩන්ගොඩ	MOH කාර්යාලය - දොඩංගොඩ	G2RP+4JH, ශ්‍රී ලංකාව	களுத்துறை	தொடங்கொட	MOH அலுவலகம் - தொடங்கொட	G2RP+4JH, இலங்கை
Kalutara	Dodangoda	Dodangoda Hospital	False	False	6.5632	79.9853	Kalutara-Matugama Rd, Sri Lanka	කළුතර	දොඩන්ගොඩ	දොඩන්ගොඩ රෝහල	කළුතර මතුගම පාර, ශ්‍රී ලංකාව	களுத்துறை	தொடங்கொட	தொடங்கொட மருத்துவமனை	களுத்துறை-மத்துகம வீதி, இலங்கை
Kalutara	Wadduwa	Econovax Factory – Wevita	False	False	6.7016	79.9878	Wevita, Bandaragama, Sri Lanka	කළුතර	වාද්දුව	ඉකොනොවැක්ස් කර්මාන්ත ශාලාව - වැවිට	වැවිට, බණ්ඩාරගම, ශ්‍රී ලංකාව	களுத்துறை	வாத்துவா	எக்கோனோவாக்ஸ் தொழிற்சாலை - வெவிட்டா	வெவிதா, பண்டாரகம, இலங்கை
Kalutara	Wadduwa	MOH Office – Wadduwa	False	False	6.6665	79.9286	Government Dispensery, Rd, Wadduwa, Sri Lanka	කළුතර	වාද්දුව	MOH කාර්යාලය - වාද්දුව	රජයේ ඩිස්පෙන්සරි, පාර, වාද්දුව, ශ්‍රී ලංකාව	களுத்துறை	வாத்துவா	MOH அலுவலகம் - வாட்டுவா	அரசு மருந்தகம், ஆர்ட், வாட்டுவா, இலங்கை
Kalutara	Matugama	MOH Office – Matugama	False	False	6.5235	80.1264	G4FG+CH8, Matugama, Sri Lanka	කළුතර	මතුගම	MOH කාර්යාලය - මතුගම	G4FG+CH8, මතුගම, ශ්‍රී ලංකාව	களுத்துறை	மத்துகம	MOH அலுவலகம் - மத்துகம	G4FG+CH8, மத்துகம, இலங்கை
Kalutara	Baduraliya	Kosgulana Maha Vidyalaya	False	False	6.5198	80.2227	Tiruwanaketiya-Agalawatte Rd, Lathpandura, Sri Lanka	කළුතර	බදුරලිය	කොස්ගුලන මහා විද්‍යාලය	තිරුවානකැටිය-අගලවත්ත පාර, ලත්පඳුර, ශ්‍රී ලංකාව	களுத்துறை	பதுரலியா	கொஸ்குலானா மகா வித்தியாலயம்	திருவனகெட்டிய-அகலவத்தை சாலை, லத்பந்துரா, இலங்கை
Kalutara	Baduraliya	Baduraliya Hospital	False	False	6.5147	80.2327	Tiruwanaketiya-Agalawatte Rd, Baduraliya, Sri Lanka	කළුතර	බදුරලිය	බදුරලිය රෝහල	තිරුවානකැටිය-අගලවත්ත පාර, බදුරලිය, ශ්‍රී ලංකාව	களுத்துறை	பதுரலியா	பதுரலியா மருத்துவமனை	திருவனகெட்டிய-அகலவத்தை சாலை, பதுரலியா, இலங்கை
Kalutara	Thebuwana	Nebada Hospital	False	False	6.5926	80.0573	Katukurunda - Neboda Rd, Thebuwana, Sri Lanka	කළුතර	තෙබුවන	නෙබාඩා රෝහල	කටුකුරුන්ද - නැබොඩ පාර, තෙබුවන, ශ්‍රී ලංකාව	களுத்துறை	தேபுவானா	நெபாடா மருத்துவமனை	கட்டுக்குருந்தா - நெபோடா சாலை, தெபுவானா, இலங்கை
Kalutara	Agalawatta	Pimbura Hospital	False	False	6.5755	80.1586	Nagoda - Kalawellawa - Bellapitiya Rd, Sri Lanka	කළුතර	අගලවත්ත	පිඹුර රෝහල	නාගොඩ - කලවැල්ලාව - බෙල්ලපිටිය පාර, ශ්‍රී ලංකාව	களுத்துறை	அகலவத்தை	பிம்புரா மருத்துவமனை	நாகொட - கலவெல்லாவ - பெல்லப்பிட்டிய வீதி, இலங்கை
Kalutara	Bulathsinhala	MOH Office – Bulathsinhala	False	False	6.6447	80.1796	J5VH+VRH, Bulathsinhala, Sri Lanka	කළුතර	බුලත්සිංහල	MOH කාර්යාලය - බුලත්සිංහල	J5VH+VRH, බුලත්සිංහල, ශ්‍රී ලංකාව	களுத்துறை	புலத்சிங்களா	MOH அலுவலகம் - புலத்சிங்களா	J5VH+VRH, புலத்சிங்களா, இலங்கை
Kalutara	Panadura	Panadura Hospital	False	False	6.7216	79.9069	A2, Panadura, Sri Lanka	කළුතර	පානදුර	පානදුර රෝහල	ඒ 2, පානදුර, ශ්‍රී ලංකාව	களுத்துறை	பாணந்துறை	பாணந்துறை மருத்துவமனை	ஏ 2, பாணந்துரா, இலங்கை
Kalutara	Panadura	Keselwatta Jilani Vidyalaya	False	False	6.7483	79.8984	PVXX+897, Panadura, Sri Lanka	කළුතර	පානදුර	කෙසෙල්වත්ත ජිලානි විද්‍යාලය	PVXX+897, පානදුර, ශ්‍රී ලංකාව	களுத்துறை	பாணந்துறை	கெசல்வத்த ஜீலானி வித்யாலயா	PVXX+897, பாணந்துரா, இலங்கை
Kalutara	Panadura	Panadura Sumangala Balika Vidyalaya	False	False	6.7026	79.9097	A2, Panadura, Sri Lanka	කළුතර	පානදුර	පානදුර සුමංගල බාලිකා විද්‍යාලය	ඒ 2, පානදුර, ශ්‍රී ලංකාව	களுத்துறை	பாணந்துறை	பாணந்துறை சுமங்கல பாலிகா வித்தியாலயம்	ஏ 2, பாணந்துரா, இலங்கை
Kalutara	Panadura	MOH Office – Panadura	False	False	6.7242	79.9073	A2, Panadura, Sri Lanka	කළුතර	පානදුර	MOH කාර්යාලය - පානදුර	ඒ 2, පානදුර, ශ්‍රී ලංකාව	களுத்துறை	பாணந்துறை	MOH அலுவலகம் - பாணந்துறை	ஏ 2, பாணந்துரா, இலங்கை
Kalutara	Millaniya	Boddelgoda Viharaya	False	False	6.683	80.0215	Morontuduwa Horana Rd, Tuttiripitiya, Sri Lanka	කළුතර	මිල්ලනිය	බොද්දේල්ගොඩ විහාරය	මොරොන්තුඩුව හොරණ පාර, තුත්තිරිපිටිය, ශ්‍රී ලංකාව	களுத்துறை	மில்லனியா	போடேல்கொட விஹாராயா	மொரொந்துடுவ ஹொரானா வீதி, துத்திரிப்பிட்டிய, இலங்கை
Kalutara	Millaniya	Pethigamuwa Viharaya	False	False	7.137	80.0515	43P2+RH4, Veyangoda, Sri Lanka	කළුතර	මිල්ලනිය	පෙතිගමුව විහාරය	43 පී 2+ආර්එච් 4, වේයන්ගොඩ, ශ්‍රී ලංකාව	களுத்துறை	மில்லனியா	பெத்திகமுவா விஹாராயா	43P2+RH4, வேயங்கொட, இலங்கை
Kalutara	Anguruwatota	MOH Office – Madurawala	False	False	6.6548	80.0578	M335+W4F, Keselhenawa, Sri Lanka	කළුතර	අඟුරුවාතොට	MOH කාර්යාලය - මදුරාවල	M335+W4F, කෙසෙල්හේනාව, ශ්‍රී ලංකාව	களுத்துறை	அங்குருவடோட்டா	MOH அலுவலகம் - மதுரவாலா	M335+W4F, கெசல்ஹேனாவா, இலங்கை
Kurunegala	Mawatagama	Udanagama Community Hall	False	False	7.4815	80.3536	F9J3+HCP, Kurunegala, Sri Lanka	කුරුණෑගල	මාවතගම	උදානගම ප්‍රජා ශාලාව	F9J3+HCP, කුරුණෑගල, ශ්‍රී ලංකාව	குருநாகல்	மாவடகம	உடனாகம சமூக மண்டபம்	F9J3+HCP, குருநாகல், இலங்கை
Kurunegala	Ambanpola	Belumgala Community Hall	False	False	7.4818	80.3609	Kurunegala, Sri Lanka	කුරුණෑගල	අඹන්පොල	බැලුම්ගල ප්‍රජා ශාලාව	කුරුණෑගල, ශ්‍රී ලංකාව	குருநாகல்	அம்பன்போலா	பெலும்கலா சமுதாயக் கூடம்	குருநாகல், இலங்கை
Kurunegala	Ambanpola	Ambakola Wewa North Community Hall	False	False	7.4785	80.3496	F8HX+9RM, Kurunegala, Sri Lanka	කුරුණෑගල	අඹන්පොල	අඹකොල වැව උතුරු ප්‍රජා ශාලාව	F8HX+9RM, කුරුණෑගල, ශ්‍රී ලංකාව	குருநாகல்	அம்பன்போலா	அம்பகோல வெவா வடக்கு சமுதாயக் கூடம்	F8HX+9RM, குருநாகல், இலங்கை
Kurunegala	Giribawa	Gurulupitigama Society Hall	False	False	7.7716	80.1099	Kurunegala Rd, Nikaweratiya 60470, Sri Lanka	කුරුණෑගල	ගිරිබාව	ගුරුළුපිටිගම සමාජ ශාලාව	කුරුණෑගල පාර, නිකවැරටිය 60470, ශ්‍රී ලංකාව	குருநாகல்	கிரிபாவா	குருலுபிடிகம சொசைட்டி ஹால்	குருநாகல் வீதி, நிகவெரட்டிய 60470, இலங்கை
Kurunegala	Giribawa	Ihala Giribawa Society Hall	False	False	8.0963	80.2201	Ihala Giribawa Galgamuwa, Pahala Giribawa, Sri Lanka	කුරුණෑගල	ගිරිබාව	ඉහළ ගිරිබාව සමිති ශාලාව	ඉහළ ගිරිබාව ගල්ගමුව, පහළ ගිරිබාව, ශ්‍රී ලංකාව	குருநாகல்	கிரிபாவா	இஹல கிரிபாவா சொசைட்டி ஹால்	இஹல கிரிபாவா கல்கமுவா, பஹால கிரிபாவா, இலங்கை
Kurunegala	Giribawa	Hasthirajapura Society Hall	False	False	7.4818	80.3609	Kurunegala, Sri Lanka	කුරුණෑගල	ගිරිබාව	හස්තිරාජපුර සමාජ ශාලාව	කුරුණෑගල, ශ්‍රී ලංකාව	குருநாகல்	கிரிபாவா	ஹஸ்திராஜபுரா சொசைட்டி ஹால்	குருநாகல், இலங்கை
Kurunegala	Giribawa	Perakumpura Fair Premises	False	False	7.4809	80.3618	U B Wanninayake Mawatha, Kurunegala, Sri Lanka	කුරුණෑගල	ගිරිබාව	පැරකුම්පුර පොළ පරිශ්‍රය	යූ බී වන්නිනායක මාවත, කුරුණෑගල, ශ්‍රී ලංකාව	குருநாகல்	கிரிபாவா	பெரகும்புரா சிகப்பு வளாகம்	யு பி வன்னிநாயக்க மாவத்தை, குருநாகல், இலங்கை
Kurunegala	Kobeigane	MOH Office - Kobeigane	False	False	7.6568	80.1236	Kobeigane, Sri Lanka	කුරුණෑගල	කොබෙයිගනේ	MOH කාර්යාලය - කොබෙයිගනේ	කොබෙයිගනේ, ශ්‍රී ලංකාව	குருநாகல்	கோபிகனே	MOH அலுவலகம் - கோபிகேன்	கோபிகேன், இலங்கை
Kurunegala	Kuliyapitiya	Kuliyapitiya Teaching Hospital	False	False	7.472	80.0446	F2CV+RR9, Kuliyapitiya, Sri Lanka	කුරුණෑගල	කුලියාපිටිය	කුලියාපිටිය ශික්ෂණ රෝහල	F2CV+RR9, කුලියාපිටිය, ශ්‍රී ලංකාව	குருநாகல்	குளியாபிட்டிய	குளியாப்பிட்டிய போதனா மருத்துவமனை	F2CV+RR9, குளியாபிட்டிய, இலங்கை
Kurunegala	Kurunegala	Town Hall - Kurunegala	False	False	7.4862	80.3649	33 Colombo Rd, Kurunegala, Sri Lanka	කුරුණෑගල	කුරුණෑගල	පුරහල - කුරුණෑගල	33 කොළඹ පාර, කුරුණෑගල, ශ්‍රී ලංකාව	குருநாகல்	குருநாகல்	டவுன் ஹால் - குருநாகல்	33 கொழும்பு சாலை, குருநாகல், இலங்கை
Kurunegala	Weerambugedara	MOH Office - Weerambugedara	False	False	7.4479	80.2584	C7X5+585, Kalugamuwa, Sri Lanka	කුරුණෑගල	වීරඹුගෙදර	MOH කාර්යාලය - වීරඹුගෙදර	සී 7 එක්ස් 5+585, කළුගමුව, ශ්‍රී ලංකාව	குருநாகல்	வீரம்புகெதரா	MOH அலுவலகம் - வீரம்புகெதரா	C7X5+585, கழுகமுவ, இலங்கை
Kurunegala	Polgahawela	MOH Office - Polgahawela	False	False	7.3309	80.2948	06 A6, Polgahawela, Sri Lanka	කුරුණෑගල	පොල්ගහවෙල	MOH කාර්යාලය - පොල්ගහවෙල	06 ඒ 6, පොල්ගහවෙල, ශ්‍රී ලංකාව	குருநாகல்	பொல்கஹவெல	MOH அலுவலகம் - பொல்கஹவெல	06 A6, பொல்கஹவெல, இலங்கை
Kurunegala	Rideegama	MOH Office - Rideegama	False	False	7.5477	80.4918	GFXR+3PF, Ridigama, Sri Lanka	කුරුණෑගල	රිදීගම	MOH කාර්යාලය - රිදීගම	GFXR+3PF, රිදිගම, ශ්‍රී ලංකාව	குருநாகல்	ரிதேகம	MOH அலுவலகம் - ரிதேகம	GFXR+3PF, ரிதிகம, இலங்கை
Kandy	Theldeniya	Gonawala Primary School – Digana	False	False	7.3096	80.7332	Gonawala, Rajawella, A26, Digana, Sri Lanka	මහනුවර	තෙල්දෙණිය	ගෝනවල ප්‍රාථමික විද්‍යාලය - දිගන	ගෝනවල, රජවැල්ල, ඒ 26, දිගන, ශ්‍රී ලංකාව	கண்டி	தெல்தெனியா	கோனாவாலா தொடக்கப்பள்ளி - திகனா	கோனாவாலா, ராஜவெல்லா, A26, திகனா, இலங்கை
Kandy	Poojapitiya	Poojapitiya Primary School	False	False	7.3651	80.6018	Ahalagashinna, Poojapitiya Road, Pujapitiya, Sri Lanka	මහනුවර	පූජාපිටිය	පූජාපිටිය ප්‍රාථමික විද්‍යාලය	අහලගස්හින්න, පූජාපිටිය පාර, පූජාපිටිය, ශ්‍රී ලංකාව	கண்டி	பூஜாபிட்டிய	பூஜாபிட்டிய ஆரம்பப் பள்ளி	அலகாகசின்னா, பூஜாபிட்டிய சாலை, பூஜாபிட்டிய, இலங்கை
Kandy	Poojapitiya	Molagoda Vidyalaya	False	False	7.385	80.5508	Molagoda, Bokkawala, Sri Lanka	මහනුවර	පූජාපිටිය	මොලගොඩ විද්‍යාලය	මොලගොඩ, බොක්කාවල, ශ්‍රී ලංකාව	கண்டி	பூஜாபிட்டிய	மொலகொட வித்யாலயா	மொலகொட, பொக்காவல, இலங்கை
Kandy	Wattegama	Walala A.Rathnayake Central College	False	False	7.3189	80.6934	8M9V+H89, Menikhinna, Sri Lanka	මහනුවර	වත්තේගම	වලල ඒ. රත්නායක මධ්‍ය මහා විද්‍යාලය	8 එම් 9 වී+එච් 89, මැණික්හින්න, ශ්‍රී ලංකාව	கண்டி	வட்டேகம	வாலாலா ஏ.ரத்நாயக்க மத்திய கல்லூரி	8M9V+H89, மெனிகின்னா, இலங்கை
Kandy	Menikhinna	Rajawella Hindu Vidyalaya	False	False	7.2969	80.7304	7PWJ+Q5C, Rajawella, Sri Lanka	මහනුවර	මැණික්හින්න	රජවැල්ල හින්දු විද්‍යාලය	7PWJ+Q5C, රජවැල්ල, ශ්‍රී ලංකාව	கண்டி	மெனிகின்னா	ராஜவெல்லா இந்து வித்யாலயா	7PWJ+Q5C, ராஜவெல்லா, இலங்கை
Kandy	Katugastota	Nugawela Maha Vidyalaya	False	False	7.3264	80.585	Nugawela Central College, Werallagama, Nugawela, Sri Lanka	මහනුවර	කටුගස්තොට	නුගවෙල මහා විද්‍යාලය	නුගවෙල මධ්‍ය මහා විද්‍යාලය, වෙරල්ලගම, නුගවෙල, ශ්‍රී ලංකාව	கண்டி	கட்டுகஸ்தோட்டா	நுகவெல மகா வித்தியாலயம்	நுகவேலா மத்திய கல்லூரி, வெரலாகம, நுகவேலா, இலங்கை
Kandy	Katugastota	Kandy Ananda College - Gonigoda	False	False	7.3468	80.5808	B206, Medawala, Sri Lanka	මහනුවර	කටුගස්තොට	මහනුවර ආනන්ද විද්‍යාලය - ගෝනිගොඩ	බී 206, මැදවල, ශ්‍රී ලංකාව	கண்டி	கட்டுகஸ்தோட்டா	கண்டி ஆனந்த கல்லூரி - கோனிகொட	B206, மேடவாலா, இலங்கை
Kandy	Gampola	Doluwa Maha Vidyalaya	False	False	7.1863	80.6083	5JP5+G82, Doluwa, Sri Lanka	මහනුවර	ගම්පොල	දොළුව මහා විද්‍යාලය	5JP5+G82, දොළුව, ශ්‍රී ලංකාව	கண்டி	கம்போலா	டோலுவ மகா வித்தியாலயம்	5 ஜேபி 5+ஜி 82, டோலுவா, இலங்கை
Kandy	Udadumbara	Udadumbara Secondary College	False	False	7.3166	80.8785	Udadumbara - Madiwaka Rd, Udadumbara, Sri Lanka	මහනුවර	උඩදුම්බර	උඩදුම්බර ද්විතීයික විද්‍යාලය	උඩදුම්බර - මඩිවක පාර, උඩදුම්බර, ශ්‍රී ලංකාව	கண்டி	உடதும்பரா	உடதும்பரா இரண்டாம் நிலை கல்லூரி	உடதும்பரா - மதிவாகா சாலை, உடதும்பரா, இலங்கை
Kandy	Udadumbara	Shivaneshwara Tamil College	False	False	7.2897	80.648	Louis Peiris Mawatha, Kandy, Sri Lanka	මහනුවර	උඩදුම්බර	ශිවනේශ්වර දෙමළ විද්‍යාලය	ලුවී පීරිස් මාවත, මහනුවර, ශ්‍රී ලංකාව	கண்டி	உடதும்பரா	சிவனேஸ்வரா தமிழ் கல்லூரி	லூயிஸ் பீரிஸ் மாவத்தை, கண்டி, இலங்கை
Kandy	Kandy	Mahanama Vidyalaya	False	False	7.2722	80.6073	396, 17 Peradeniya Rd, Kandy 20000, Sri Lanka	මහනුවර	මහනුවර	මහානාම විද්‍යාලය	396, 17 පේරාදෙණිය පාර, මහනුවර 20000, ශ්‍රී ලංකාව	கண்டி	கண்டி	மகாநாம வித்யாலயா	396, 17 பேராதெனிய சாலை, கண்டி 20000, இலங்கை
Kandy	Kandy	Peradeniya Youth Services Council	False	False	7.1108	80.566	Kandy Rd, Sri Lanka	මහනුවර	මහනුවර	පේරාදෙණිය තරුණ සේවා සභාව	මහනුවර පාර, ශ්‍රී ලංකාව	கண்டி	கண்டி	பேராதனை இளைஞர் சேவைகள் மன்றம்	கண்டி வீதி, இலங்கை
Kandy	Kotmale	MOH Office – Kotmale	False	False	7.2434	80.5797	Mampitiya - Diggalapotta Rd, Daulagala, Sri Lanka	මහනුවර	කොත්මලේ	MOH කාර්යාලය - කොත්මලේ	මාම්පිටිය - දිග්ගලපොට්ට පාර, දවුලගල, ශ්‍රී ලංකාව	கண்டி	கொத்மலை	MOH அலுவலகம் - கொத்மலை	மாம்பிட்டிய - திகலபொட்டா வீதி, தauலகலா, இலங்கை
Nuwara Eliya	Hanguranketa	Rikillagaskada Hospital	False	False	7.1453	80.7826	B364, Rikillagaskada, Sri Lanka	නුවරඑළිය	හඟුරන්කැට	රිකිල්ලගස්කඩ රෝහල	බී 364, රිකිල්ලගස්කඩ, ශ්‍රී ලංකාව	நுவரெலியா	ஹங்குரன்கெட்டா	ரிக்கில்லகாஸ்கட மருத்துவமனை	B364, ரிக்கிலகஸ்கட, இலங்கை
Matale	Makulugaswewa	Makulugaswewa Vidyalaya	False	False	7.8451	80.5744	Makulugaswewa, Sri Lanka	මාතලේ	මකුළුගස්වැව	මකුළුගස්වැව විද්‍යාලය	මකුළුගස්වැව, ශ්‍රී ලංකාව	மாத்தளை	மகுலுகஸ்வெவ	மகுலுகஸ்வெவ வித்தியாலயம்	மகுலுகஸ்வெவா, இலங்கை
Matale	Galewela	Galewela Hospital	False	False	7.7602	80.5723	Ananda Rajakaruna Mawatha, Galewela, Sri Lanka	මාතලේ	ගලේවෙල	ගලේවෙල රෝහල	ආනන්ද රාජකරුණා මාවත, ගලේවෙල, ශ්‍රී ලංකාව	மாத்தளை	கலேவெல	கலேவெல மருத்துவமனை	ஆனந்த ராஜகருணா மாவத்தை, கலேவெல, இலங்கை
Matale	Dambulla	Pannampitiya Vidyalaya	False	False	7.777	80.6521	Pannampitiya, Dambulla, Sri Lanka	මාතලේ	දඹුල්ල	පන්නම්පිටිය විද්‍යාලය	පන්නම්පිටිය, දඹුල්ල, ශ්‍රී ලංකාව	மாத்தளை	தம்புள்ளை	பன்னம்பிட்டிய வித்தியாலயம்	பன்னம்பிட்டிய, தம்புள்ள, இலங்கை
Matale	Dambulla	Dambulla National College	False	False	7.863	80.6464	Nishshanka Road Link Rd, Dambulla 21100, Sri Lanka	මාතලේ	දඹුල්ල	දඹුල්ල ජාතික විද්‍යාලය	නිශ්ශංක පාර සම්බන්ධ පාර, දඹුල්ල 21100, ශ්‍රී ලංකාව	மாத்தளை	தம்புள்ளை	தம்புள்ள தேசிய கல்லூரி	நிஷ்சங்க சாலை இணைப்பு வீதி, தம்புள்ள 21100, இலங்கை
Matale	Naula	Sri Naga National College	False	False	7.7066	80.6566	Elahera Road, Naula, Sri Lanka	මාතලේ	නාවුලා	ශ්‍රී නාගා ජාතික විද්‍යාලය	ඇලහැර පාර, නාඋල, ශ්‍රී ලංකාව	மாத்தளை	நாவுலா	ஸ்ரீ நாகா தேசிய கல்லூரி	எலஹெரா சாலை, நாவுலா, இலங்கை
Matale	Naula	MOH Office – Naula	False	False	7.7054	80.6536	Kandy - Jaffna Hwy, Naula, Sri Lanka	මාතලේ	නාවුලා	MOH කාර්යාලය - නාඋල	මහනුවර - යාපනය හ්වි, නාඋල, ශ්‍රී ලංකාව	மாத்தளை	நாவுலா	MOH அலுவலகம் - Naula	கண்டி - யாழ்ப்பாணம், நாவுலா, இலங்கை
Matale	Naula	Nalanda Hospital	False	False	7.6649	80.6368	Nalanda, Kandy - Jaffna Hwy, Sri Lanka	මාතලේ	නාවුලා	නාලන්දා රෝහල	නාලන්දා, මහනුවර - යාපනය හ්වි, ශ්‍රී ලංකාව	மாத்தளை	நாவுலா	நாளந்தா மருத்துவமனை	நாளந்தா, கண்டி - யாழ்ப்பாணம், இலங்கை
Matale	Naula	Kongahwela Hospital	False	False	7.6783	80.6935	Gan Imayaya, Sri Lanka	මාතලේ	නාවුලා	කෝන්ගහවෙල රෝහල	ගාන් ඉමායාය, ශ්‍රී ලංකාව	மாத்தளை	நாவுலா	கொங்கஹ்வேலா மருத்துவமனை	கான் இமயாயா, இலங்கை
Matale	Naula	Madipola Hospital	False	False	7.6858	80.5768	MHPG+8PQ, Madipola, Sri Lanka	මාතලේ	නාවුලා	මාදිපොල රෝහල	MHPG+8PQ, මාදිපොල, ශ්‍රී ලංකාව	மாத்தளை	நாவுலா	மடிபொல மருத்துவமனை	MHPG+8PQ, மடிபோலா, இலங்கை
Matale	Rattota	Kande Nuwara Tamil Maha Vidyalaya	False	False	7.4525	80.6834	Madulkelle - Kabaragala - Kandenuwara, Matale, Sri Lanka	මාතලේ	රත්තොට	කන්දේ නුවර දෙමළ මහා විද්‍යාලය	මඩුල්කැලේ - කබරගල - කන්දේනුවර, මාතලේ, ශ්‍රී ලංකාව	மாத்தளை	ரத்தோட்டா	கண்டே நுவர தமிழ் மகா வித்தியாலயம்	மதுல்கெல்லே - கபராகல - கண்டெனுவர, மாத்தளை, இலங்கை
Matale	Matale	Madawala Navodya Vidyalaya	False	False	7.4628	80.6262	Kandy - Jaffna Hwy, Matale 21000, Sri Lanka	මාතලේ	මාතලේ	මඩවල නවෝද්‍යා විද්‍යාලය	මහනුවර - යාපනය හ්වි, මාතලේ 21000, ශ්‍රී ලංකාව	மாத்தளை	மாத்தளை	மடவாலா நவோத்யா வித்யாலயா	கண்டி - யாழ்ப்பாணம், மாத்தளை 21000, இலங்கை
Matale	Matale	St. Thomas College	False	False	7.4705	80.6212	Kings St, Matale, Sri Lanka	මාතලේ	මාතලේ	ශාන්ත තෝමස් විද්‍යාලය	කිංග්ස් ශාන්ත, මාතලේ, ශ්‍රී ලංකාව	மாத்தளை	மாத்தளை	செயின்ட் தாமஸ் கல்லூரி	கிங்ஸ் செயின்ட், மாத்தளை, இலங்கை
Matale	Matale	Warakamura Annur Vidyalaya	False	False	7.4733	80.6264	32 Molandepitiya Rd, Matale, Sri Lanka	මාතලේ	මාතලේ	වරකාමුර අන්නූර් විද්‍යාලය	32 මොලන්දෙපිටිය පාර, මාතලේ, ශ්‍රී ලංකාව	மாத்தளை	மாத்தளை	வாரகமுரா அன்னூர் வித்யாலயா	32 மொலந்தெபிட்டிய வீதி, மாத்தளை, இலங்கை
Matale	Mahawela	Pallepola Viharaya	False	False	7.6279	80.6054	Palapathwela - Galewela Rd, Pallepola, Sri Lanka	මාතලේ	මහවෙල	පල්ලේපොල විහාරය	පලාපත්වෙල - ගලේවෙල පාර, පල්ලෙපොල, ශ්‍රී ලංකාව	மாத்தளை	மகாவெல	பல்லெபோல விஹாராயா	பாலபத்வெல - கலேவெல வீதி, பல்லெபோல, இலங்கை
Matale	Mahawela	Sudharmarama Viharaya	False	False	7.2729	80.6087	Peradeniya Rd, Kandy, Sri Lanka	මාතලේ	මහවෙල	සුධර්මාරාම විහාරය	පේරාදෙණිය පාර, මහනුවර, ශ්‍රී ලංකාව	மாத்தளை	மகாவெல	சுதர்மராம விகாரை	பேராதெனிய சாலை, கண்டி, இலங்கை
Matale	Laggala	Pallegama Vidyalaya	False	False	7.912	80.6458	WJ6W+Q8M, Dambulla, Sri Lanka	මාතලේ	ලග්ගල	පල්ලේගම විද්‍යාලය	WJ6W+Q8M, දඹුල්ල, ශ්‍රී ලංකාව	மாத்தளை	லக்கலா	பல்லேகம வித்யாலயா	WJ6W+Q8M, தம்புள்ளா, இலங்கை
Matale	Wilgamuwa	Maraka Central College	False	False	7.5874	80.9583	Maraka Divisional Hospital,, Matale, Sri Lanka	මාතලේ	විල්ගමුව	මරකා මධ්‍ය විද්‍යාලය	මාරක ප්‍රාදේශීය රෝහල, මාතලේ, ශ්‍රී ලංකාව	மாத்தளை	வில்கமுவா	மரக்கா மத்திய கல்லூரி	மரக பிரதேச மருத்துவமனை ,, மாத்தளை, இலங்கை
Matale	Wilgamuwa	Wilgamuwa Hospital	False	False	7.5403	80.9144	GWR7+4Q3, Hettipola, Sri Lanka	මාතලේ	විල්ගමුව	විල්ගමුව රෝහල	GWR7+4Q3, හෙට්ටිපොල, ශ්‍රී ලංකාව	மாத்தளை	வில்கமுவா	வில்கமுவ மருத்துவமனை	GWR7+4Q3, ஹெட்டிபொல, இலங்கை
Badulla	Badulla	Army Base Hospital - Badulla	False	True	6.9918	81.0524	Daya Gunasekara Mawatha, Badulla, Sri Lanka	බදුල්ල	බදුල්ල	හමුදා මුලික රෝහල - බදුල්ල	දයා ගුණසේකර මාවත, බදුල්ල, ශ්‍රී ලංකාව	பதுளை	பதுளை	இராணுவ அடிப்படை மருத்துவமனை - பதுளை	தயா குணசேகர மாவத்தை, பதுளை, இலங்கை
Badulla	Kandaketiya	MOH Office – Meegahakivula	False	False	6.9885	81.0532	Mediriya Road, Badulla, Sri Lanka	බදුල්ල	කන්දකැටිය	MOH කාර්යාලය - මීගහකිවුල	මැදිරි පාර, බදුල්ල, ශ්‍රී ලංකාව	பதுளை	கண்டகெட்டிய	MOH அலுவலகம் - மீகஹகிவுலா	மெதிரியா சாலை, பதுளை, இலங்கை
Badulla	Haldummulla	Ilukpelessa Vidyalaya	False	False	6.9911	81.0574	Uva College, Uva College Rd, බදුල්ල 90000, Sri Lanka	බදුල්ල	හල්දුම්මුල්ල	ඉලුක්පැලැස්ස විද්‍යාලය	Vaව විද්‍යාලය, vaව විද්‍යාලය පාර, බදුල්ල 90000, ශ්‍රී ලංකාව	பதுளை	ஹல்தும்முல்லா	இலுக்பெலஸ்ஸா வித்தியாலயம்	ஊவா கல்லூரி, ஊவா கல்லூரி வீதி, வரி 90000, இலங்கை
Badulla	Haldummulla	Blackwood No.- 02 Tamil College	False	False	7.0496	81.0313	Badulla, Sri Lanka	බදුල්ල	හල්දුම්මුල්ල	බ්ලැක්වුඩ් අංක -2 දෙමළ විද්‍යාලය	බදුල්ල, ශ්‍රී ලංකාව	பதுளை	ஹல்தும்முல்லா	பிளாக்வுட் எண்- 02 தமிழ் கல்லூரி	பதுளை, இலங்கை
Badulla	Haputale	MOH Office – Haputale	False	False	6.8043	80.954	Haputalegama Rd, Diyatalawa, Sri Lanka	බදුල්ල	හපුතලේ	MOH කාර්යාලය - හපුතලේ	හපුතලේගම පාර, දියතලාව, ශ්‍රී ලංකාව	பதுளை	ஹப்புதலே	MOH அலுவலகம் - ஹப்புத்தளை	ஹப்புதலேகம வீதி, தியத்தலாவா, இலங்கை
Badulla	Mahiyanganaya	MOH Office –Mahiyanganaya	False	False	7.4629	81.0175	F278+5X9, Girandurukotte, Sri Lanka	බදුල්ල	මහියංගනය	MOH කාර්යාලය - මහියංගනය	F278+5X9, ගිරාඳුරුකෝට්ටේ, ශ්‍රී ලංකාව	பதுளை	மஹியங்கனாய	MOH அலுவலகம் - மஹியங்கனயா	F278+5X9, கிரந்துருகோட்டை, இலங்கை
Badulla	Elpitiya	Elpitiya Base Hospital	False	False	6.2933	80.1641	Elpitiya 80400, Sri Lanka	බදුල්ල	ඇල්පිටිය	ඇල්පිටිය මූලික රෝහල	ඇල්පිටිය 80400, ශ්‍රී ලංකාව	பதுளை	எல்பிட்டிய	எல்பிட்டிய அடிப்படை மருத்துவமனை	எல்பிட்டிய 80400, இலங்கை
Galle	Pitigala	Gangarama Viharaya	False	False	6.0386	80.2305	Gangarama Rd, Galle 80000, Sri Lanka	ගාල්ල	පිටිගල	ගංගාරාම විහාරය	ගංගාරාම පාර, ගාල්ල 80000, ශ්‍රී ලංකාව	காலி	பிடிகலா	கங்காராம விகாரை	கங்காராம சாலை, காலி 80000, இலங்கை
Galle	Kotawila	Kamburugamuwa Maha Vidyalaya	False	False	5.9434	80.4943	medagoda Kamburugamuwa - Labima Rd, Matara, Sri Lanka	ගාල්ල	කොටවිල	කඹුරුගමුව මහා විද්‍යාලය	මැදගොඩ කඹුරුගමුව - මාතර ලැබීම පාර, ශ්‍රී ලංකාව	காலி	கொட்டாவில	கம்புருகமுவ மகா வித்தியாலயம்	மெடகொட கம்புருகமுவ - லேபிமா வீதி, மாத்தறை, இலங்கை
Hambantota	Walasmulla	Vidikanda Parimary School	False	False	6.2567	80.6738	7M4F+MG7, Katuwana, Sri Lanka	හම්බන්තොට	වලස්මුල්ල	විදිකන්ද ප්‍රාථමික විද්‍යාලය	7 එම් 4 එෆ්+එම්ජී 7, කටුවන, ශ්‍රී ලංකාව	அம்பாந்தோட்டை	வலஸ்முல்லா	விடிகண்ட பரிமேரி பள்ளி	7M4F+MG7, கட்டுவானா, இலங்கை
Hambantota	Sooriyawewa	Mahagalwewa Vidyalaya	False	False	6.3832	81.0321	92MJ+7V6, Migahajandura, Sri Lanka	හම්බන්තොට	සූරියවැව	මහගල්වැව විද්‍යාලය	92MJ+7V6, මිගහජඳුර, ශ්‍රී ලංකාව	அம்பாந்தோட்டை	சூரியவெவ	மஹாகல்வெவ வித்தியாலயம்	92MJ+7V6, மிகஹஜந்துரா, இலங்கை
Hambantota	Sooriyawewa	Ihala Kumbukwewa Viharaya	False	False	6.2465	81.0047	Madunaagala Forest Monastery, Sooriyawewa, Sri Lanka	හම්බන්තොට	සූරියවැව	ඉහළ කුඹුක්වැව විහාරය	මදුනාගල ආරණ්‍ය සේනාසනය, සූරියවැව, ශ්‍රී ලංකාව	அம்பாந்தோட்டை	சூரியவெவ	இஹல கும்புக்வெவ விஹாராயா	மதுனாகலா வன மடாலயம், சூரியவெவ, இலங்கை
Hambantota	Tangalle	MOH Office – Tangalle	False	False	6.0236	80.7957	2QFW+F75, Tangalle, Sri Lanka	හම්බන්තොට	තංගල්ල	MOH කාර්යාලය - තංගල්ල	2QFW+F75, තංගල්ල, ශ්‍රී ලංකාව	அம்பாந்தோட்டை	தங்கல்லா	MOH அலுவலகம் - தங்கல்லா	2QFW+F75, தங்காலை, இலங்கை
Hambantota	Katuwana	MH Office – Katuwana	False	False	6.2672	80.6975	7M8W+VXX, Katuwana, Sri Lanka	හම්බන්තොට	කටුවන	එම්එච් කාර්යාලය - කටුවන	7M8W+VXX, කටුවන, ශ්‍රී ලංකාව	அம்பாந்தோட்டை	கட்டுவானா	எம்எச் அலுவலகம் - கட்டுவானா	7M8W+VXX, கட்டுவானா, இலங்கை
Hambantota	Agunukolapelessa	Gurunnehegeara Community Hall	False	False	6.1565	81.1217	Hambantota-Gonnoruwa-Meegahajandura Rd, භම්ඛන්තොට, Sri Lanka	හම්බන්තොට	අගුණුකොලපැලැස්ස	ගුරුන්නැහැගේආර ප්‍රජා ශාලාව	හම්බන්තොට-ගොන්නොරුව-මීගහජඳුර පාර, භම්ඛන්තොට, ශ්‍රී ලංකාව	அம்பாந்தோட்டை	அகுணுகோலாபெலெஸ்ஸா	குருன்னேகேகரா சமுதாயக் கூடம்	ஹம்பாந்தோட்டை-கொன்னொருவ-மீகஹஜந்துரா சாலை, பம்காந்தோட்டா, இலங்கை
Hambantota	Beliatta	MOH Office – Beliatta	False	False	6.0518	80.7417	3P2R+PMQ, Hambantota, Sri Lanka	හම්බන්තොට	බෙලිඅත්ත	MOH කාර්යාලය - බෙලිඅත්ත	3P2R+PMQ, හම්බන්තොට, ශ්‍රී ලංකාව	அம்பாந்தோட்டை	பெலியாட்டா	MOH அலுவலகம் - பெலியாட்ட	3P2R+PMQ, ஹம்பாந்தோட்டை, இலங்கை
Rathnapura	Balangoda	Hopewell Vidyalaya	False	False	6.6229	80.725	JPFF+4XW, Balangoda, Sri Lanka	රත්නපුර	බලන්ගොඩ	හෝප්වෙල් විද්‍යාලය	JPFF+4XW, බලංගොඩ, ශ්‍රී ලංකාව	இரத்தினபுரி	பலாங்கொடை	ஹோப்வெல் வித்யாலயா	JPFF+4XW, பலாங்கோடா, இலங்கை
Rathnapura	Opanayaka	Vidyakara Vidyalaya	False	False	6.6103	80.6208	JJ6C+487, Opanayake, Sri Lanka	රත්නපුර	ඕපනායක	විද්‍යාකර විද්‍යාලය	JJ6C+487, ඕපනායක, ශ්‍රී ලංකාව	இரத்தினபுரி	ஓபநாயக்கா	வித்யாகரா வித்யாலயா	JJ6C+487, ஓபநாயக்க, இலங்கை
Rathnapura	Imbulpe	Ratmalawinna Vidyalaya	False	False	6.6765	80.7256	Ratmalawinna, Sri Lanka	රත්නපුර	ඉඹුල්පේ	රත්මලාවින්න විද්‍යාලය	රත්මලවින්න, ශ්‍රී ලංකාව	இரத்தினபுரி	இம்புல்பே	ரத்மாலவின்னா வித்யாலயா	ரத்மாலவின்னா, இலங்கை
Rathnapura	Rathnapura	Badugedara Vidyalaya	False	False	6.6759	80.4174	Batugedara, Ratnapura, Sri Lanka	රත්නපුර	රත්නපුර	බදුගෙදර විද්‍යාලය	බටුගෙදර, රත්නපුර, ශ්‍රී ලංකාව	இரத்தினபுரி	இரத்தினபுரி	படுகெதாரா வித்யாலயா	பதுகெதரா, இரத்தினபுரி, இலங்கை
Rathnapura	Embilipitiya	MOH Office - Embilipitiya	False	False	6.3263	80.8493	To Middeniya, Embilipitiya, Sri Lanka	රත්නපුර	ඇඹිලිපිටිය	MOH කාර්යාලය - ඇඹිලිපිටිය	මිද්දෙණිය, ඇඹිලිපිටිය, ශ්‍රී ලංකාව	இரத்தினபுரி	எம்பிலிப்பிட்டிய	MOH அலுவலகம் - எம்பிலிப்பிட்டிய	மித்தெனியா, எம்பிலிப்பிட்டிய, இலங்கை
Rathnapura	Embilipitiya	Moraketiya Vidyalaya	False	False	6.3406	80.8806	8VRJ+772, Embilipitiya, Sri Lanka	රත්නපුර	ඇඹිලිපිටිය	මොරකැටිය විද්‍යාලය	8VRJ+772, ඇඹිලිපිටිය, ශ්‍රී ලංකාව	இரத்தினபுரி	எம்பிலிப்பிட்டிய	மொரகெட்டிய வித்யாலயா	8VRJ+772, எம்பிலிப்பிட்டிய, இலங்கை
Rathnapura	Kolonna	Suriyakanda Egbert Tea Factory	False	False	6.4371	80.6354	A17, Suriyakanda, Sri Lanka	රත්නපුර	කොළොන්න	සූරියකන්ද එග්බර්ට් තේ කර්මාන්ත ශාලාව	ඒ 17, සූරියකන්ද, ශ්‍රී ලංකාව	இரத்தினபுரி	கொலோன்னா	சூரியகாந்த எக்பர்ட் தேயிலை தொழிற்சாலை	A17, சூரியகந்தா, இலங்கை
Rathnapura	Udawalawa	Thimbolketiya Vidyalaya	False	False	6.4233	80.7962	Thimbolketiya, Sri Lanka	රත්නපුර	උඩවලව	තිම්බොල්කැටිය විද්‍යාලය	තිම්බොල්කැටිය, ශ්‍රී ලංකාව	இரத்தினபுரி	உடவலவா	திம்போல்கெட்டிய வித்யாலயா	திம்போல்கெட்டிய, இலங்கை
Rathnapura	Godakawela	Pallebedda Vidyalaya	False	False	6.4817	80.708	A18, Pallebedda, Sri Lanka	රත්නපුර	ගොඩකවෙල	පල්ලෙබැද්ද විද්‍යාලය	ඒ 18, පල්ලෙබැද්ද, ශ්‍රී ලංකාව	இரத்தினபுரி	கோடகவேலா	பள்ளேபெத்த வித்யாலயா	ஏ 18, பள்ளேபெட்டா, இலங்கை
Rathnapura	Kuttigala	Bodiraja Pre School	False	False	6.3466	80.8424	8RWR+MW5, Embilipitiya, Sri Lanka	රත්නපුර	කුට්ටිගල	බෝදිරාජ පෙර පාසල	8RWR+MW5, ඇඹිලිපිටිය, ශ්‍රී ලංකාව	இரத்தினபுரி	குட்டிகலா	போதிராஜா முன்பள்ளி	8RWR+MW5, எம்பிலிப்பிட்டிய, இலங்கை
Rathnapura	Kuruwita	Sevon Hotel	False	False	6.6776	80.3958	12 Mudduwa Rd, Ratnapura, Sri Lanka	රත්නපුර	කුරුවිට	සෙවොන් හෝටලය	12 මුද්දූව පාර, රත්නපුර, ශ්‍රී ලංකාව	இரத்தினபுரி	குருவிடா	செவன் ஹோட்டல்	12 முடுவா வீதி, இரத்தினபுரி, இலங்கை
Rathnapura	Kuruwita	Rahula Vidyalaya	False	False	6.6648	80.4783	MF7H+W88, Lellopitiya, Sri Lanka	රත්නපුර	කුරුවිට	රාහුල විද්‍යාලය	MF7H+W88, ලෙල්ලෝපිටිය, ශ්‍රී ලංකාව	இரத்தினபுரி	குருவிடா	ராகுல வித்யாலயா	MF7H+W88, லெல்லோபிட்டிய, இலங்கை
Rathnapura	Kuruwita	Eraththa Vidyalaya	False	False	6.7755	80.253	Q7G3+662, Ratnapura, Sri Lanka	රත්නපුර	කුරුවිට	එරත්ත විද්යාලය	Q7G3+662, රත්නපුර, ශ්‍රී ලංකාව	இரத்தினபுரி	குருவிடா	எரத்த வித்யாலயா	Q7G3+662, இரத்தினபுரி, இலங்கை
Rathnapura	Kuruwita	Thalawitiya Sri Wimalaramaya	False	False	6.6905	80.3799	Panadura-Nambapana-Ratnapura Hwy, Ratnapura, Sri Lanka	රත්නපුර	කුරුවිට	තලවිටිය ශ්‍රී විමලාරාමය	පානදුර-නාම්බපන-රත්නපුර හ්වි, රත්නපුර, ශ්‍රී ලංකාව	இரத்தினபுரி	குருவிடா	தளவித்திய ஸ்ரீ விமலராமையா	பாணாதுரா-நம்பபனா-இரத்தினபுரி ஹ்வி, இரத்தினபுரா, இலங்கை
Rathnapura	Nivithigala	Nivithigala Sumana Vidyalaya	False	False	6.5967	80.4569	Tiruwanaketiya-Agalawatte Rd, Nivithigala, Sri Lanka	රත්නපුර	නිවිතිගල	නිවිතිගල සුමනා විද්‍යාලය	තිරුවානකැටිය-අගලවත්ත පාර, නිවිතිගල, ශ්‍රී ලංකාව	இரத்தினபுரி	நிவித்திகலா	நிவித்திகல சுமனா வித்யாலயா	திருவனகெட்டிய-அகலவத்தை சாலை, நிவிதிகலா, இலங்கை
Rathnapura	Nivithigala	Dela Vidyalaya	False	False	6.6205	80.4542	Dela, Sri Lanka	රත්නපුර	නිවිතිගල	දෑල විද්‍යාලය	දේලා, ශ්‍රී ලංකාව	இரத்தினபுரி	நிவித்திகலா	தேலா வித்யாலயா	டெலா, இலங்கை
Rathnapura	Kalawana	Hagarangala Vidyalaya	False	False	6.6835	80.3995	A4, Ratnapura, Sri Lanka	රත්නපුර	කලවාන	හගරංගල විද්‍යාලය	ඒ 4, රත්නපුර, ශ්‍රී ලංකාව	இரத்தினபுரி	கலவானா	ஹகரங்கலா வித்யாலயா	A4, இரத்தினபுரா, இலங்கை
Rathnapura	Kalawana	Wemibiyagoda Community Hall	False	False	6.6898	79.999	MXQX+WJ2, Bandaragama, Sri Lanka	රත්නපුර	කලවාන	වේම්බියාගොඩ ප්‍රජා ශාලාව	MXQX+WJ2, බණ්ඩාරගම, ශ්‍රී ලංකාව	இரத்தினபுரி	கலவானா	வெமிபியாகொட சமூக மண்டபம்	MXQX+WJ2, பண்டாரகம, இலங்கை
Rathnapura	Kalawana	Meepagama Vidyalaya	False	False	6.7755	80.253	Q7G3+662, Ratnapura, Sri Lanka	රත්නපුර	කලවාන	මීපාගම විද්‍යාලය	Q7G3+662, රත්නපුර, ශ්‍රී ලංකාව	இரத்தினபுரி	கலவானா	மீபகம வித்யாலயா	Q7G3+662, இரத்தினபுரி, இலங்கை
Rathnapura	Kalawana	Ganegoda Viharaya	False	False	6.5307	80.3907	Tiruwanaketiya-Agalawatte Rd, Kalawana, Sri Lanka	රත්නපුර	කලවාන	ගනේගොඩ විහාරය	තිරුවානකැටිය-අගලවත්ත පාර, කලවාන, ශ්‍රී ලංකාව	இரத்தினபுரி	கலவானா	கணேகொட விஹாராயா	திருவனகெட்டிய-அகலவத்தை சாலை, கலவானா, இலங்கை
Rathnapura	Kalawana	Kalawana National College	False	False	6.5354	80.401	GCP2+5C6, Kalawana, Sri Lanka	රත්නපුර	කලවාන	කලවාන ජාතික විද්‍යාලය	GCP2+5C6, කලවාන, ශ්‍රී ලංකාව	இரத்தினபுரி	கலவானா	கலவானா தேசிய கல்லூரி	GCP2+5C6, கலவானா, இலங்கை
Rathnapura	Rakwana	Pothupitiya Vidyalaya	False	False	6.4245	80.5177	CGF9+R37, Kalawana, Sri Lanka	රත්නපුර	රක්වාන	පොතුපිටිය විද්‍යාලය	සීජීඑෆ් 9+ආර් 37, කලවාන, ශ්‍රී ලංකාව	இரத்தினபுரி	ரக்வானா	பொதுப்பிட்டி வித்தியாலயம்	CGF9+R37, கலவானா, இலங்கை
Rathnapura	Ayagama	Udugale Factory	False	False	6.7378	80.2881	Kiriella-Ellawala-Eheliyagoda Rd, Sri Lanka	රත්නපුර	අයගම	උඩුගලේ කර්මාන්ත ශාලාව	කිරිඇල්ල-එල්ලාවල-ඇහැලියගොඩ පාර, ශ්‍රී ලංකාව	இரத்தினபுரி	அயகம	உடுகலே தொழிற்சாலை	கிரியெல்ல-எல்லவல-எஹெலியகொட வீதி, இலங்கை
Rathnapura	Ayagama	Paragala Factory	False	False	6.6086	80.3366	Paragala, Ayagama, Ayagama - Kukulegama Road, Ratnapura 70024, Sri Lanka	රත්නපුර	අයගම	පරගල කර්මාන්ත ශාලාව	පරගල, අයගම, අයගම - කුකුලේගම පාර, රත්නපුර 70024, ශ්‍රී ලංකාව	இரத்தினபுரி	அயகம	பரகலா தொழிற்சாலை	பரகல, அயகம, அயகம - குக்குலேகம சாலை, இரத்தினபுரி 70024, இலங்கை
Rathnapura	Kiriella	Galathura Rubbur Factory	False	False	6.7149	80.2886	Mada galathura, Sri Lanka	රත්නපුර	කිරිඇල්ල	ගලතුර රබර් කර්මාන්ත ශාලාව	මඩ ගලතුර, ශ්‍රී ලංකාව	இரத்தினபுரி	கிரியெல்லா	கலதுரா ரப்பர் தொழிற்சாலை	மட கலாதுரா, இலங்கை
Rathnapura	Kiriella	Medabaddara Vidyalaya	False	False	6.7755	80.253	Q7G3+662, Ratnapura, Sri Lanka	රත්නපුර	කිරිඇල්ල	මැදබද්දර විද්‍යාලය	Q7G3+662, රත්නපුර, ශ්‍රී ලංකාව	இரத்தினபுரி	கிரியெல்லா	மேடபத்தர வித்யாலயா	Q7G3+662, இரத்தினபுரி, இலங்கை
Rathnapura	Kiriella	Mahaelgoda Community Hall	False	False	6.6898	79.999	MXQX+WJ2, Bandaragama, Sri Lanka	රත්නපුර	කිරිඇල්ල	මහඑල්ගොඩ ප්‍රජා ශාලාව	MXQX+WJ2, බණ්ඩාරගම, ශ්‍රී ලංකාව	இரத்தினபுரி	கிரியெல்லா	மஹேல்கொட சமூக மண்டபம்	MXQX+WJ2, பண்டாரகம, இலங்கை
Rathnapura	Warakapola	Mas Factory Premises	False	False	6.2685	80.7866	Mas Active Pvt Ltd,Thorakolayaya Road, Embilipitiya - Middeniya Rd, Middeniya, Sri Lanka	රත්නපුර	වරකාපොල	මාස් කර්මාන්ත ශාලා පරිශ්රය	මාස් ඇක්ටිව් පුද්ගලික සමාගම, තෝරකොලයයා පාර, ඇඹිලිපිටිය - මිද්දෙණිය පාර, මිද්දෙණිය, ශ්‍රී ලංකාව	இரத்தினபுரி	வாரகபொல	மாஸ் தொழிற்சாலை வளாகம்	மாஸ் ஆக்டிவ் பிரைவேட் லிமிடெட், தொரகொலையா சாலை, எம்பிலிப்பிட்டிய - மித்தெனியா சாலை, மித்தெனியா, இலங்கை
Kegalle	Yatiyantota	Malalpola Vidyalaya	False	False	7.2515	80.3496	Vidyalaya Rd, Kegalle, Sri Lanka	කෑගල්ල	යටියන්තොට	මලල්පොල විද්‍යාලය	විද්‍යාලය පාර, කෑගල්ල, ශ්‍රී ලංකාව	கேகாலை	யடியந்தோட்டா	மலல்போலா வித்யாலயா	வித்தியாலய வீதி, கேகாலை, இலங்கை
Kegalle	Yatiyantota	Jayavindagama Vee Oya Viharaya	False	False	7.0604	80.3327	386M+538, Malalpola, Sri Lanka	කෑගල්ල	යටියන්තොට	ජයවින්දගම වී ඔය විහාරය	386 එම්+538, මලල්පොල, ශ්‍රී ලංකාව	கேகாலை	யடியந்தோட்டா	ஜெயவிந்தகம வீ ஓயா விஹாராயா	386M+538, மலால்போலா, இலங்கை
Kegalle	Rambukkana	MOH Office - Rambukkana	False	False	7.3273	80.3949	89GV+WXC, Rambukkana, Sri Lanka	කෑගල්ල	රඹුක්කන	MOH කාර්යාලය - රඹුක්කන	89GV+WXC, රඹුක්කන, ශ්‍රී ලංකාව	கேகாலை	ரம்புக்கானா	MOH அலுவலகம் - ரம்புக்கானா	89GV+WXC, ரம்புக்கானா, இலங்கை
Kegalle	Kegalle	MOH Office – Kegalle	False	False	7.248	80.3436	Kegalle-Bulathkohupitiya-Karawanella Hwy, Kegalle, Sri Lanka	කෑගල්ල	කෑගල්ල	MOH කාර්යාලය - කෑගල්ල	කෑගල්ල-බුලත්කොහුපිටිය-කරවනැල්ල හ්වි, කෑගල්ල, ශ්‍රී ලංකාව	கேகாலை	கேகாலை	MOH அலுவலகம் - கேகாலை	கேகாலை-புலத்கோஹுபிட்டிய-கரவனெல்லா ஹ்வி, கேகாலை, இலங்கை
Kegalle	Mawanella	MOH Office - Mawanella	False	False	7.2532	80.4456	Rambukkana-Mawanella Rd, Mawanella, Sri Lanka	කෑගල්ල	මාවනැල්ල	MOH කාර්යාලය - මාවනැල්ල	රඹුක්කන-මාවනැල්ල පාර, මාවනැල්ල, ශ්‍රී ලංකාව	கேகாலை	மாவனெல்லா	MOH அலுவலகம் - மாவனெல்லா	ரம்புக்கான-மாவனெல்லா சாலை, மாவனெல்லா, இலங்கை
Kegalle	Galigamuwa	MOH Office - Galigamuwa	False	False	7.2404	80.3005	ballapana, galigamuwa town, Sri Lanka	කෑගල්ල	ගලිගමුව	MOH කාර්යාලය - ගලිගමුව	බැල්ලපන, ගලිගමුව නගරය, ශ්‍රී ලංකාව	கேகாலை	கலிகமுவா	MOH அலுவலகம் - கலிகமுவா	பலபனா, கலிகமுவா நகரம், இலங்கை
Anuradhapura	Anuradhapura	Army Hospital - Anuradhapura	False	True	8.3383	80.4076	AB02, Anuradhapura, Sri Lanka	අනුරාධපුර	අනුරාධපුර	හමුදා රෝහල - අනුරාධපුර	ඒබී 02, අනුරාධපුර, ශ්‍රී ලංකාව	அனுராதபுரம்	அனுராதபுரம்	இராணுவ மருத்துவமனை - அனுராதபுரம்	ஏபி 02, அனுராதபுரம், இலங்கை
Anuradhapura	Kekirawa	District Hospital – Kekirawa	False	False	8.0438	80.5959	A9, Kekirawa, Sri Lanka	අනුරාධපුර	කැකිරාව	දිසා රෝහල - කැකිරාව	ඒ 9, කැකිරාව, ශ්‍රී ලංකාව	அனுராதபுரம்	கெக்கிராவா	மாவட்ட மருத்துவமனை - கெக்கிராவா	A9, கெக்கிராவா, இலங்கை
Anuradhapura	Nochchiyagama	Dunupotagama Vidyalaya	False	False	8.2593	80.5523	7H52+PW2, Anuradhapura, Sri Lanka	අනුරාධපුර	නොච්චියාගම	දුනුපොතාගම විද්‍යාලය	7 එච් 52+පීඩබ්ලිව් 2, අනුරාධපුර, ශ්‍රී ලංකාව	அனுராதபுரம்	நொச்சியாகம	துனுபோதகம வித்தியாலயம்	7H52+PW2, அனுராதபுரம், இலங்கை
Anuradhapura	Nochchiyagama	Horivila Vidyalaya	False	False	8.0596	80.6881	Senadiriyagama, Palugaswewa, Sri Lanka	අනුරාධපුර	නොච්චියාගම	හොරිවිල විද්‍යාලය	සේනාදිරියාගම, පලුගස්වැව, ශ්‍රී ලංකාව	அனுராதபுரம்	நொச்சியாகம	ஹோரிவில வித்யாலயா	சேனாதிரியகம, பலுகஸ்வெவ, இலங்கை
Jaffna	Wadukkotte	MOH Office – Karainagar	False	False	9.7251	79.9977	Sri Lanka, Manipay, Sri Lanka	යාපනය	වඩුක්කෝට්ටේ	MOH කාර්යාලය - කරෙයිනගර්	ශ්‍රී ලංකාව, මනිපායි, ශ්‍රී ලංකාව	யாழ்	வட்டுக்கோட்டை	MOH அலுவலகம் - காரைநகர்	இலங்கை, மானிப்பாய், இலங்கை
Jaffna	Kayts	MOH Office – Kayts	False	False	9.6978	79.8664	Sri Lanka, Kayts, Sri Lanka	යාපනය	කයිට්ස්	MOH කාර්යාලය - කයිට්ස්	ශ්‍රී ලංකාව, කයිට්ස්, ශ්‍රී ලංකාව	யாழ்	ஊர்காவற்துறையினர்	MOH அலுவலகம் - ஊர்காவற்துறை	இலங்கை, ஊர்காவற்துறை, இலங்கை
Jaffna	Kayts	MOH Office – Velanai	False	False	9.637	79.9028	JWP3+Q4R, Velanai, Sri Lanka	යාපනය	කයිට්ස්	එම්ඕඑච් කාර්යාලය - වෙලනායි	JWP3+Q4R, වෙලනායි, ශ්‍රී ලංකාව	யாழ்	ஊர்காவற்துறையினர்	MOH அலுவலகம் - வேலணை	JWP3+Q4R, வேலணை, இலங்கை
Jaffna	Jaffna	Porumal Kovil Hall - Jaffna	False	False	9.671	80.0159	Clock Tower Rd, Jaffna, Sri Lanka	යාපනය	යාපනය	පෝරුමාල් කෝවිල් ශාලාව - යාපනය	ඔරලෝසු කණුව පාර, යාපනය, ශ්‍රී ලංකාව	யாழ்	யாழ்	பொருமாள் கோவில் மண்டபம் - யாழ்	கடிகார கோபுரம் சாலை, யாழ்ப்பாணம், இலங்கை
Jaffna	Thelippalai	MOH Office – Thelippalai	False	False	9.7853	80.0329	Q2PM+452, Tellippalai, Sri Lanka	යාපනය	තෙලිප්පලෙයි	MOH කාර්යාලය - තෙලිප්පලෙයි	Q2PM+452, තෙලිප්පලෙයි, ශ්‍රී ලංකාව	யாழ்	தெல்லிப்பளை	MOH அலுவலகம் - தெல்லிப்பழை	Q2PM+452, தெல்லிப்பழை, இலங்கை
Jaffna	Chavakachcheri	Town Hall - Chavakachcheri	False	False	9.6584	80.1611	M556+9C9, Chavakachcheri, Sri Lanka	යාපනය	චාවකච්චේරි	නගර ශාලාව - චාවකච්චේරි	එම් 556+9 සී 9, චාවකච්චේරි, ශ්‍රී ලංකාව	யாழ்	சாவகச்சேரி	டவுன் ஹால் - சாவகச்சேரி	M556+9C9, சாவகச்சேரி, இலங்கை
Jaffna	Nelliadi	MOH Office – Karaveddy	False	False	9.7921	80.2018	Q6R2+VP3, Point Pedro, Sri Lanka	යාපනය	නෙල්ලියාඩි	MOH කාර්යාලය - කරවෙඩ්ඩි	Q6R2+VP3, පේදුරුතුඩුව, ශ්‍රී ලංකාව	யாழ்	நெல்லியடி	MOH அலுவலகம் - கரவெட்டி	Q6R2+VP3, பருத்தித்துறை, இலங்கை
Jaffna	Point Pedro	MOH Office - Point Pedro	False	False	9.8058	80.223	R64F+854, Point Pedro, Sri Lanka	යාපනය	පේදුරුතුඩුව	MOH කාර්යාලය - පේදුරුතුඩුව	ආර් 64 එෆ්+854, පේදුරුතුඩුව, ශ්‍රී ලංකාව	யாழ்	பருத்தித்துறை	MOH அலுவலகம் - பருத்தித்துறை	R64F+854, பருத்தித்துறை, இலங்கை
Kilinochchi	Kilinochchi	Army Base Hospital - Kilinochchi	False	True	9.3727	80.4118	Ananthapuram, A9, Kilinochchi, Sri Lanka	කිලිනොච්චි	කිලිනොච්චි	යුද හමුදා මූලික රෝහල - කිලිනොච්චිය	අනන්තරපුරම්, ඒ 9, කිලිනොච්චිය, ශ්‍රී ලංකාව	கிளிநொச்சி	கிளிநொச்சி	இராணுவ அடிப்படை மருத்துவமனை - கிளிநொச்சி	அனந்தபுரம், ஏ 9, கிளிநொச்சி, இலங்கை
Kilinochchi	Kilinochchi	MOH Office – Kilinochchi	False	False	9.397	80.4078	Kandy - Jaffna Hwy, Kilinochchi, Sri Lanka	කිලිනොච්චි	කිලිනොච්චි	එම්ඕඑච් කාර්යාලය - කිලිනොච්චිය	මහනුවර - යාපනය හ්වි, කිලිනොච්චි, ශ්‍රී ලංකාව	கிளிநொச்சி	கிளிநொச்சி	MOH அலுவலகம் - கிளிநொச்சி	கண்டி - யாழ்ப்பாணம், கிளிநொச்சி, இலங்கை
Kilinochchi	Pooneryn	MOH Office - Pooneryn	False	False	9.508	80.2083	G655+58P, Pooneryn, Sri Lanka	කිලිනොච්චි	පුනරීන්	MOH කාර්යාලය - පුනරීන්	ජී 655+58 පී, පූනරීන්, ශ්‍රී ලංකාව	கிளிநொச்சி	பூனெரின்	MOH அலுவலகம் - பூனெரின்	G655+58P, பூனெரின், இலங்கை
Kilinochchi	Dharmapuram	MOH Office - Dharmapuram	False	False	9.7251	79.9977	Sri Lanka, Manipay, Sri Lanka	කිලිනොච්චි	ධර්මපුරම්	MOH කාර්යාලය - ධර්මපුරම්	ශ්‍රී ලංකාව, මනිපායි, ශ්‍රී ලංකාව	கிளிநொச்சி	தர்மபுரம்	MOH அலுவலகம் - தர்மபுரம்	இலங்கை, மானிப்பாய், இலங்கை
Mullaitivu	Mullaitivu	Army Base Hospital - Mullaitivu	False	True	9.2596	80.7664	7Q58+VH2, Mullaitivu, Sri Lanka	මුලතිව්	මුලතිව්	මුලතිව් යුද හමුදා මූලික රෝහල	7Q58+VH2, මුලතිව්, ශ්‍රී ලංකාව	முல்லைத்தீவு	முல்லைத்தீவு	இராணுவ அடிப்படை மருத்துவமனை - முல்லைத்தீவு	7Q58+VH2, முல்லைத்தீவு, இலங்கை
Mullaitivu	Mullaitivu	MOH Office – Mullaitivu	False	False	9.2249	80.776	6QFG+X9G, Tanniyutttu, Sri Lanka	මුලතිව්	මුලතිව්	MOH කාර්යාලය - මුලතිව්	6QFG+X9G, ටන්නියුත්තු, ශ්‍රී ලංකාව	முல்லைத்தீவு	முல்லைத்தீவு	MOH அலுவலகம் - முல்லைத்தீவு	6QFG+X9G, தன்னியூட்டு, இலங்கை
Mullaitivu	Mankulam	MOH Office – Mankulam	False	False	9.1365	80.3079	48P5+J58, Mallavi, Sri Lanka	මුලතිව්	මාන්කුලම්	MOH කාර්යාලය - මාන්කුලම්	48 පී 5+ජේ 58, මල්ලාවි, ශ්‍රී ලංකාව	முல்லைத்தீவு	மாங்குளம்	MOH அலுவலகம் - மாங்குளம்	48P5+J58, மல்லாவி, இலங்கை
Mullaitivu	Mallavi	MOH Sub Office - Kalvilan	False	False	9.2249	80.776	6QFG+X9G, Tanniyutttu, Sri Lanka	මුලතිව්	මල්ලාවි	MOH උප කාර්යාලය - කල්විලාන්	6QFG+X9G, ටන්නියුත්තු, ශ්‍රී ලංකාව	முல்லைத்தீவு	மல்லவி	MOH துணை அலுவலகம் - கல்விலன்	6QFG+X9G, தன்னியூட்டு, இலங்கை
Mullaitivu	Welioya	MOH Office - Sampathnuwara	False	False	8.9811	80.7717	XQJC+CMX, Welioya, Sri Lanka	මුලතිව්	වැලිඔය	MOH කාර්යාලය - සම්පත්නුවර	XQJC+CMX, වැලිඔය, ශ්‍රී ලංකාව	முல்லைத்தீவு	வெலியோயா	MOH அலுவலகம் - சம்பத்நுவரா	XQJC+CMX, வெலிஓயா, இலங்கை
Mullaitivu	Pudukudiruppu	MOH Office – Pudukudiruppu	False	False	9.7251	79.9977	Sri Lanka, Manipay, Sri Lanka	මුලතිව්	පුදුකුඩිරුප්පු	එම්ඕඑච් කාර්යාලය - පුදුකුඩුරුප්පු	ශ්‍රී ලංකාව, මනිපායි, ශ්‍රී ලංකාව	முல்லைத்தீவு	புதுக்குடியிருப்பு	MOH அலுவலகம் - புதுக்குடியிருப்பு	இலங்கை, மானிப்பாய், இலங்கை
Mannar	Adampan	MOH Office - Adampan	False	True	8.9448	79.9969	WXVW+WPQ, Adampan, Sri Lanka	මන්නාරම	අඩම්පන්	එම්ඕඑච් කාර්යාලය - අඩම්පන්	WXVW+WPQ, අඩම්පන්, ශ්‍රී ලංකාව	மன்னார்	அடம்பன்	MOH அலுவலகம் - அடம்பன்	WXVW+WPQ, அடம்பன், இலங்கை
Mannar	Mannar	Al Jazeera GMM School	False	True	8.932	80.0064	W2J4+QHR, Adampan, Sri Lanka	මන්නාරම	මන්නාරම	අල් ජසීරා ජීඑම්එම් පාසල	W2J4+QHR, අඩම්පන්, ශ්‍රී ලංකාව	மன்னார்	மன்னார்	அல் ஜசீரா ஜிஎம்எம் பள்ளி	W2J4+QHR, அடம்பன், இலங்கை
Mannar	Murukkan	Don Bosco Vocational Traing Center, Murukkan	False	True	8.836	80.0356	Murunkan - Nanattan Rd, Sri Lanka	මන්නාරම	මුරුක්කන්	දොන් බොස්කෝ වෘත්තීය පුහුණු මධ්‍යස්ථානය, මුරුක්කන්	මුරුංකන් - නානාටන් පාර, ශ්‍රී ලංකාව	மன்னார்	முருக்கன்	டான் போஸ்கோ தொழிற்பயிற்சி மையம், முருக்கன்	முருங்கன் - நானாட்டான் சாலை, இலங்கை
Trincomalee	Muttur	MOH Office – Muttur	False	False	8.4539	81.2645	1 Old Batticaloa Rd, Mutur, Sri Lanka	ත්රිකුණාමලය	මුතූර්	MOH කාර්යාලය - මුතූර්	1 පරණ මඩකලපුව පාර, මුතූර්, ශ්‍රී ලංකාව	திருகோணமலை	மூதூர்	MOH அலுவலகம் - மூதூர்	1 பழைய மட்டக்களப்பு வீதி, மூதூர், இலங்கை
Trincomalee	Kinniya	MOH Office – Kuruggankeni	False	False	8.599	81.2172	H6X8+JV2, Trincomalee, Sri Lanka	ත්රිකුණාමලය	කින්නියා	MOH කාර්යාලය - කුරුගන්කේනි	H6X8+JV2, ත්‍රිකුණාමලය, ශ්‍රී ලංකාව	திருகோணமலை	கிண்ணியா	MOH அலுவலகம் - குருக்கன்கேணி	H6X8+JV2, திருகோணமலை, இலங்கை
Trincomalee	Kinniya	MOH Office – Kinniya	False	False	8.4987	81.1796	F5XH+FVC, Kinniya 31100, Sri Lanka	ත්රිකුණාමලය	කින්නියා	MOH කාර්යාලය - කින්නියා	F5XH+FVC, කින්නියා 31100, ශ්‍රී ලංකාව	திருகோணமலை	கிண்ணியா	MOH அலுவலகம் - கிண்ணியா	F5XH+FVC, கிண்ணியா 31100, இலங்கை
Trincomalee	Sripura	MOH Office – Sripura	False	False	8.599	81.2172	H6X8+JV2, Trincomalee, Sri Lanka	ත්රිකුණාමලය	ශ්‍රීපුර	MOH කාර්යාලය - ශ්‍රීපුර	H6X8+JV2, ත්‍රිකුණාමලය, ශ්‍රී ලංකාව	திருகோணமலை	ஸ்ரீபுரா	MOH அலுவலகம் - ஸ்ரீபுரா	H6X8+JV2, திருகோணமலை, இலங்கை
Trincomalee	Kantale	MOH Office – Kantale	False	False	8.599	81.2172	H6X8+JV2, Trincomalee, Sri Lanka	ත්රිකුණාමලය	කන්තලේ	MOH කාර්යාලය - කන්තලේ	H6X8+JV2, ත්‍රිකුණාමලය, ශ්‍රී ලංකාව	திருகோணமலை	கந்தலே	MOH அலுவலகம் - கந்தலே	H6X8+JV2, திருகோணமலை, இலங்கை
Trincomalee	Kuchchaveli	MOH Office – Kuchchaveli	False	False	8.599	81.217	MOH Office, Farm Rd, Trincomalee, Sri Lanka	ත්රිකුණාමලය	කුච්චවේලි	MOH කාර්යාලය - කුච්චවේලි	එම්ඕඑච් කාර්යාලය, ගොවිපල පාර, ත්‍රිකුණාමලය, ශ්‍රී ලංකාව	திருகோணமலை	குச்சவெளி	MOH அலுவலகம் - குச்சவெளி	MOH அலுவலகம், பண்ணை சாலை, திருகோணமலை, இலங்கை
Trincomalee	Kuchchaveli	Divisional Hospital - Kuchchaveli	False	False	8.8148	81.1024	R472+WW9, Kuchchaveli, Sri Lanka	ත්රිකුණාමලය	කුච්චවේලි	ප්‍රාදේශීය රෝහල - කුච්චවේලි	ආර් 472+WW9, කුච්චවේලි, ශ්‍රී ලංකාව	திருகோணமலை	குச்சவெளி	பிரதேச மருத்துவமனை - குச்சவெளி	R472+WW9, குச்சவெளி, இலங்கை
Trincomalee	Kuchchaveli	Divisional Hospital – Nilaveli	False	False	8.681	81.1936	M5JV+CF6, Nilaveli, Sri Lanka	ත්රිකුණාමලය	කුච්චවේලි	ප්‍රාදේශීය රෝහල - නිලාවේලි	M5JV+CF6, නිලාවේලි, ශ්‍රී ලංකාව	திருகோணமலை	குச்சவெளி	பிரதேச மருத்துவமனை - நிலாவெளி	M5JV+CF6, நிலவேலி, இலங்கை
Trincomalee	Pulmoddai	Pulmoddai Base Hospital	False	False	8.9412	80.9831	WXRM+F7J, Pulmoddai, Sri Lanka	ත්රිකුණාමලය	පුල්මොඩෙයි	පුල්මොඩෙයි මූලික රෝහල	ඩබ්ලිව්එක්ස්ආර්එම්+එෆ් 7 ජේ, පුල්මොඩෙයි, ශ්‍රී ලංකාව	திருகோணமலை	புல்மோட்டை	புல்மோட்டை அடிப்படை மருத்துவமனை	WXRM+F7J, புல்மோடை, இலங்கை
Trincomalee	Harbour Police	MOH Office – Trincomalee	False	False	8.599	81.217	MOH Office, Farm Rd, Trincomalee, Sri Lanka	ත්රිකුණාමලය	වරාය පොලිසිය	එම්ඕඑච් කාර්යාලය - ත්‍රිකුණාමලය	එම්ඕඑච් කාර්යාලය, ගොවිපල පාර, ත්‍රිකුණාමලය, ශ්‍රී ලංකාව	திருகோணமலை	துறைமுக காவல்துறை	MOH அலுவலகம் - திருகோணமலை	MOH அலுவலகம், பண்ணை சாலை, திருகோணமலை, இலங்கை
Trincomalee	Uppuveli	MOH Office - Uppuveli	False	False	8.599	81.217	MOH Office, Farm Rd, Trincomalee, Sri Lanka	ත්රිකුණාමලය	උප්පුවේලි	MOH කාර්යාලය - උප්පුවේලි	එම්ඕඑච් කාර්යාලය, ගොවිපල පාර, ත්‍රිකුණාමලය, ශ්‍රී ලංකාව	திருகோணமலை	உப்புவேலி	MOH அலுவலகம் - உப்புவேலி	MOH அலுவலகம், பண்ணை சாலை, திருகோணமலை, இலங்கை
Trincomalee	Serunuwara	MOH Office – Serunuwara	False	False	8.599	81.2172	H6X8+JV2, Trincomalee, Sri Lanka	ත්රිකුණාමලය	සේරුනුවර	MOH කාර්යාලය - සේරුනුවර	H6X8+JV2, ත්‍රිකුණාමලය, ශ්‍රී ලංකාව	திருகோணமலை	சேருநுவரா	MOH அலுவலகம் - சேருநுவரா	H6X8+JV2, திருகோணமலை, இலங்கை
Batticaloa	Kokkadichcholai	MOH Office - Mahaladithivu	False	False	7.6836	81.7308	MPMJ+C8J, Kattankudy, Sri Lanka	මඩකලපුව	කොක්කඩිච්චෝලේ	MOH කාර්යාලය - මහලදිතිව්	එම්පීඑම්ජේ+සී 8 ජේ, කාත්තන්කුඩි, ශ්‍රී ලංකාව	மட்டக்களப்பு	கொக்கட்டிச்சோலை	MOH அலுவலகம் - மகாலடித்தீவு	MPMJ+C8J, காத்தான்குடி, இலங்கை
Batticaloa	Vellawali	Vellawali Maha Vidyalaya	False	False	7.9114	81.525	WG6F+HX8, Batticaloa, Sri Lanka	මඩකලපුව	වෙල්ලවාලි	වෙල්ලවාලි මහා විද්‍යාලය	WG6F+HX8, මඩකලපුව, ශ්‍රී ලංකාව	மட்டக்களப்பு	வெல்லவாலி	வெல்லாவலி மகா வித்தியாலயம்	WG6F+HX8, மட்டக்களப்பு, இலங்கை
Batticaloa	Kaluwanchikudy	MOH Office - Kaluwanchikudy	False	False	7.5094	81.7921	Kaluwanchikudy, South, Sri Lanka	මඩකලපුව	කළුවන්චිකුඩි	MOH කාර්යාලය - කළුවන්චිකුඩි	කළුවන්චිකුඩි, දකුණ, ශ්‍රී ලංකාව	மட்டக்களப்பு	களுவாஞ்சிக்குடி	MOH அலுவலகம் - களுவாஞ்சிக்குடி	களுவாஞ்சிக்குடி, தெற்கு, இலங்கை
Batticaloa	Kaluwanchikudy	Kaluwanchikudy Hospital	False	False	7.5172	81.7852	GQ8P+V3V, Kaluwanchikudy, Sri Lanka	මඩකලපුව	කළුවන්චිකුඩි	කලුවන්චිකුඩි රෝහල	GQ8P+V3V, කළුවාංචිකුඩි, ශ්‍රී ලංකාව	மட்டக்களப்பு	களுவாஞ்சிக்குடி	களுவாஞ்சிக்குடி மருத்துவமனை	GQ8P+V3V, களுவாஞ்சிக்குடி, இலங்கை
Batticaloa	Batticaloa	MOH Office – Batticaloa	False	False	7.7083	81.6914	Hospital Rd, Batticaloa, Sri Lanka	මඩකලපුව	මඩකලපුව	MOH කාර්යාලය - මඩකලපුව	රෝහල පාර, මඩකලපුව, ශ්‍රී ලංකාව	மட்டக்களப்பு	மட்டக்களப்பு	MOH அலுவலகம் - மட்டக்களப்பு	மருத்துவமனை சாலை, மட்டக்களப்பு, இலங்கை
Batticaloa	Valachchenai	MOH Office - Valachchenai	False	False	7.9123	81.5328	WG6M+W46, Batticaloa, Sri Lanka	මඩකලපුව	වාලච්චේන	MOH කාර්යාලය - වාලච්චේන	WG6M+W46, මඩකලපුව, ශ්‍රී ලංකාව	மட்டக்களப்பு	வாலாச்சேனை	MOH அலுவலகம் - வாலாச்சேனை	WG6M+W46, மட்டக்களப்பு, இலங்கை
Batticaloa	Valachchenai	MOH Office – Oddamavadi	False	False	7.9123	81.5328	WG6M+W46, Batticaloa, Sri Lanka	මඩකලපුව	වාලච්චේන	එම්ඕඑච් කාර්යාලය - ඔද්දමවඩි	WG6M+W46, මඩකලපුව, ශ්‍රී ලංකාව	மட்டக்களப்பு	வாலாச்சேனை	MOH அலுவலகம் - ஓட்டமாவடி	WG6M+W46, மட்டக்களப்பு, இலங்கை
Batticaloa	Valachchenai	MOH Office – Nawaladi	False	False	7.7083	81.6914	Hospital Rd, Batticaloa, Sri Lanka	මඩකලපුව	වාලච්චේන	MOH කාර්යාලය - නාවලඩි	රෝහල පාර, මඩකලපුව, ශ්‍රී ලංකාව	மட்டக்களப்பு	வாலாச்சேனை	MOH அலுவலகம் - நாவலடி	மருத்துவமனை சாலை, மட்டக்களப்பு, இலங்கை
Batticaloa	Valachchenai	Valachchenai Base Hospital	False	False	7.9113	81.533	Valaichchenai-Nasuvantivu-Navaladi Road, Sri Lanka	මඩකලපුව	වාලච්චේන	වාලච්චේන මූලික රෝහල	වාලච්චේනයි-නසුවන්ටිව්-නවාලාඩි පාර, ශ්‍රී ලංකාව	மட்டக்களப்பு	வாலாச்சேனை	வாலாச்சேனை ஆதார மருத்துவமனை	வாழைச்சேனை-நசுவந்திவு-நாவலடி சாலை, இலங்கை
Batticaloa	Vakarai	MOH Office – Vakarai	False	False	8.1352	81.4352	Trincomalee Hwy, Vakarai, Sri Lanka	මඩකලපුව	වාකරේ	MOH කාර්යාලය - වාකරේ	ත්‍රිකුණාමලය හ්වි, වාකරේ, ශ්‍රී ලංකාව	மட்டக்களப்பு	வாகரை	MOH அலுவலகம் - வாகரை	திருகோணமலை Hwy, வாகரை, இலங்கை
Batticaloa	Vavunathivu	MOH Office – Vavunathivu	False	False	7.7083	81.6914	Hospital Rd, Batticaloa, Sri Lanka	මඩකලපුව	වවුනතිව්	MOH කාර්යාලය - වවුනතිව්	රෝහල පාර, මඩකලපුව, ශ්‍රී ලංකාව	மட்டக்களப்பு	வவுணதீவு	MOH அலுவலகம் - வவுணதீவு	மருத்துவமனை சாலை, மட்டக்களப்பு, இலங்கை
Batticaloa	Eravur	Eravur Hospital	False	False	7.7773	81.6029	Trincomalee Hwy, Eravur, Sri Lanka	මඩකලපුව	එරාවුර්	එරාවුර් රෝහල	ත්‍රිකුණාමලය හ්වි, එරාවුර්, ශ්‍රී ලංකාව	மட்டக்களப்பு	ஏறாவூர்	ஏறாவூர் மருத்துவமனை	திருகோணமலை Hwy, ஏறாவூர், இலங்கை
Batticaloa	Eravur	MOH Office – Eravur	False	False	7.7837	81.6056	QJM4+F76, Eravur, Sri Lanka	මඩකලපුව	එරාවුර්	MOH කාර්යාලය - එරාවුර්	QJM4+F76, එරාවුර්, ශ්‍රී ලංකාව	மட்டக்களப்பு	ஏறாவூர்	MOH அலுவலகம் - ஏறாவூர்	QJM4+F76, ஏறாவூர், இலங்கை
Batticaloa	Eravur	MOH Office – Chenkaladi	False	False	7.7836	81.5934	Trincomalee Hwy, Chenkaladi 30350, Sri Lanka	මඩකලපුව	එරාවුර්	MOH කාර්යාලය - චෙන්කලාඩි	ත්‍රිකුණාමලය හ්වි, චෙන්කලාඩි 30350, ශ්‍රී ලංකාව	மட்டக்களப்பு	ஏறாவூர்	MOH அலுவலகம் - செங்கலடி	திருகோணமலை Hwy, செங்கலடி 30350, இலங்கை
Batticaloa	Eravur	Mawadivembu Hospital	False	False	7.8121	81.5569	Mavadivembu, Thavapuram, Sri Lanka	මඩකලපුව	එරාවුර්	මාවඩිවෙම්බු රෝහල	මාවදිවෙම්බු, තවාපුරම්, ශ්‍රී ලංකාව	மட்டக்களப்பு	ஏறாவூர்	மாவடிவேம்பு மருத்துவமனை	மாவடிவேம்பு, தவபுரம், இலங்கை
Batticaloa	Eravur	Mobile Vaccination	False	False	7.8293	81.4718	Batticaloa, Sri Lanka	මඩකලපුව	එරාවුර්	ජංගම එන්නත	මඩකලපුව, ශ්‍රී ලංකාව	மட்டக்களப்பு	ஏறாவூர்	மொபைல் தடுப்பூசி	மட்டக்களப்பு, இலங்கை
Batticaloa	Eravur	Chenkaladi Hospital	False	False	7.7835	81.59	Batticaloa Rd, Chenkaladi, Sri Lanka	මඩකලපුව	එරාවුර්	චෙන්කලාඩි රෝහල	මඩකලපුව පාර, චෙන්කලාඩි, ශ්‍රී ලංකාව	மட்டக்களப்பு	ஏறாவூர்	செங்கலடி மருத்துவமனை	மட்டக்களப்பு வீதி, செங்கலடி, இலங்கை
Ampara	Kalmunai	MOH Office - Kalmunai North	False	False	7.4191	81.8212	CR9C+MF3, Kalmunai 32300, Sri Lanka	අම්පාර	කල්මුණේ	MOH කාර්යාලය - කල්මුණේ උතුර	CR9C+MF3, කල්මුණේ 32300, ශ්‍රී ලංකාව	அம்பாறை	கல்முனை	MOH அலுவலகம் - கல்முனை வடக்கு	CR9C+MF3, கல்முனை 32300, இலங்கை
Ampara	Karaitivu	MOH Office – Karaitivu	False	False	7.3727	81.8249	9RFF+3X8, Karaitivu, Sri Lanka	අම්පාර	කාරතිව්	MOH කාර්යාලය - කරෙයිතිව්	9RFF+3X8, කරෙයිතිව්, ශ්‍රී ලංකාව	அம்பாறை	காரைதீவு	MOH அலுவலகம் - காரைதீவு	9RFF+3X8, காரைதீவு, இலங்கை
Ampara	Sammanthurai	MOH Office – Sammanthurai	False	False	7.3699	81.8123	9R96+WWR, Sammanthurai, Sri Lanka	අම්පාර	සමන්තුරේ	MOH කාර්යාලය - සම්මන්තුරේ	9R96+ඩබ්ලිව්ඩබ්ලිව්ආර්, සම්මන්තුරේ, ශ්‍රී ලංකාව	அம்பாறை	சம்மாந்துறை	MOH அலுவலகம் - சம்மாந்துறை	9R96+WWR, சம்மாந்துறை, இலங்கை
